[2024-06-13 11:56:33.143795] [0x0000007f887dd010] [LogDataTag] [0x00000af8] [1] Initial timestamp, Current time [s], User-defined position x [m], User-defined position y [m], User-defined position z [m], User-defined velocity x [m/s], User-defined velocity y [m/s], User-defined velocity z [m/s], User-defined acceleration x [m/s^2], User-defined acceleration y [m/s^2], User-defined acceleration z [m/s^2], User-defined yaw [rad], User-defined yaw_dot [rad/s], User-defined yaw_dot_dot [rad/s^2], Odometry time [s], Position x [m], Position y [m], Position z [m], Quaternion q0 [-], Quaternion q1 [-], Quaternion q2 [-], Quaternion q3 [-], Velocity x [m/s], Velocity y [m/s], Velocity z [m/s], Angular velocity x [rad/s], Angular velocity y [rad/s], Angular velocity z [rad/s], Roll [rad], Pitch [rad], Yaw [rad], Algorithm execution time [us], Mu translational raw x [N], Mu translational raw y [N], Mu translational raw z [N], Mu translational x [N], Mu translational y [N], Mu translational z [N], U control input U1 [N], U control input U2 [Nm], U control input U3 [Nm], U control input U4 [Nm], Roll reference [rad], Pitch reference [rad], Roll_dot reference [rad/s], Pitch_dot reference [rad/s], Roll_dot_dot reference [rad/s^2], Pitch_dot_dot reference [rad/s^2], Roll_dot [rad/s], Pitch_dot [rad/s], Yaw_dot [rad/s], Thrust motors QUADCOPTER T1 [N], Thrust motors QUADCOPTER T2 [N], Thrust motors QUADCOPTER T3 [N], Thrust motors QUADCOPTER T4 [N], Thrust motors normalized QUADCOPTER T1 [-], Thrust motors normalized QUADCOPTER T2 [-], Thrust motors normalized QUADCOPTER T3 [-], Thrust motors normalized QUADCOPTER T4 [-], Thrust motors X8COPTER T1 [N], Thrust motors X8COPTER T2 [N], Thrust motors X8COPTER T3 [N], Thrust motors X8COPTER T4 [N], Thrust motors X8COPTER T5 [N], Thrust motors X8COPTER T6 [N], Thrust motors X8COPTER T7 [N], Thrust motors X8COPTER T8 [N], Thrust motors normalized X8COPTER T1 [-], Thrust motors normalized X8COPTER T2 [-], Thrust motors normalized X8COPTER T3 [-], Thrust motors normalized X8COPTER T4 [-], Thrust motors normalized X8COPTER T5 [-], Thrust motors normalized X8COPTER T6 [-], Thrust motors normalized X8COPTER T7 [-], Thrust motors normalized X8COPTER T8 [-], Roll error [rad], Pitch error [rad], Yaw error [rad], Outer loop Proportional term x [-], Outer loop Proportional term y [-], Outer loop Proportional term z [-], Outer loop Integral term x [-], Outer loop Integral term y [-], Outer loop Integral term z [-], Outer loop Derivative term x [-], Outer loop Derivative term y [-], Outer loop Derivative term z [-], Outer loop Dynamic Inversion term x [-], Outer loop Dynamic Inversion term y [-], Outer loop Dynamic Inversion term z [-], Inner loop Proportional term x [-], Inner loop Proportional term y [-], Inner loop Proportional term z [-], Inner loop Integral term x [-], Inner loop Integral term y [-], Inner loop Integral term z [-], Inner loop Derivative term x [-], Inner loop Derivative term y [-], Inner loop Derivative term z [-], Inner loop Dynamic Inversion term x [-], Inner loop Dynamic Inversion term y [-], Inner loop Dynamic Inversion term z [-], 
[2024-06-13 11:56:33.192659] [0x0000007f810809a0] [LogDataTag] [0x00000af8] [4] 1718294193138008, 0.053808, 0, 0, 0, 0, 0, 0, 0, 0, 0, 0, 0, 0, 1.8445e+13, 0.0987908, -0.130783, -0.297053, 0.998981, -0.00891576, -0.0171254, -0.0407897, -0.00112694, 0.00149559, 0.00441264, 0.000111394, -0.000921312, 0.000274474, -0.016427, -0.0349504, -0.0813302, 0, 0, 0, 0, 0, 0, 0, 0, 0, 0, 0, 0, 0, 0, 0, 0, 0, 0, 0, 0, 0, 0, 0, 0, 0, 0, 0, 0, 0, 0, 0, 0, 0, 0, 0, 0, 0, 0, 0, 0, 0, 0, 0, 0, 0, 0, 0, 0, 0, 0, 0, 0, 0, 0, 0, 0, 0, 0, 0, 0, 0, 0, 0, 0, 0, 0, 0, 0, 0, 0, 0, 
[2024-06-13 11:56:33.193669] [0x0000007f810809a0] [LogDataTag] [0x00000af8] [5] 1718294193138008, 0.055185, 0, 0, 0, 0, 0, 0, 0, 0, 0, 0, 0, 0, 1.8445e+13, 0.0987833, -0.130786, -0.297255, 0.998981, -0.00891992, -0.0171296, -0.0407876, -0.00107717, 0.00151509, 0.00445786, -0.000440417, -0.000242862, 0.000217357, -0.0164351, -0.0349592, -0.0813257, 0, 0, 0, 0, 0, 0, 0, 0, 0, 0, 0, 0, 0, 0, 0, 0, 0, 0, 0, 0, 0, 0, 0, 0, 0, 0, 0, 0, 0, 0, 0, 0, 0, 0, 0, 0, 0, 0, 0, 0, 0, 0, 0, 0, 0, 0, 0, 0, 0, 0, 0, 0, 0, 0, 0, 0, 0, 0, 0, 0, 0, 0, 0, 0, 0, 0, 0, 0, 0, 0, 0, 
[2024-06-13 11:56:33.202714] [0x0000007f818819a0] [LogDataTag] [0x00000af8] [9] 1718294193138008, 0.064182, 0, 0, 0, 0, 0, 0, 0, 0, 0, 0, 0, 0, 1.8445e+13, 0.0987833, -0.130786, -0.297255, 0.998981, -0.00891992, -0.0171296, -0.0407876, -0.00107717, 0.00151509, 0.00445786, -0.000440417, -0.000242862, 0.000217357, -0.0164351, -0.0349592, -0.0813257, 0, 0, 0, 0, 0, 0, 0, 0, 0, 0, 0, 0, 0, 0, 0, 0, 0, 0, 0, 0, 0, 0, 0, 0, 0, 0, 0, 0, 0, 0, 0, 0, 0, 0, 0, 0, 0, 0, 0, 0, 0, 0, 0, 0, 0, 0, 0, 0, 0, 0, 0, 0, 0, 0, 0, 0, 0, 0, 0, 0, 0, 0, 0, 0, 0, 0, 0, 0, 0, 0, 0, 
[2024-06-13 11:56:33.212576] [0x0000007f818819a0] [LogDataTag] [0x00000af8] [14] 1718294193138008, 0.074118, 0, 0, 0, 0, 0, 0, 0, 0, 0, 0, 0, 0, 1.8445e+13, 0.0987789, -0.130786, -0.297337, 0.998981, -0.00892069, -0.0171336, -0.0407908, -0.00107439, 0.00153528, 0.00446901, -0.000170373, -0.000469139, -0.000968296, -0.0164362, -0.0349671, -0.081332, 0, 0, 0, 0, 0, 0, 0, 0, 0, 0, 0, 0, 0, 0, 0, 0, 0, 0, 0, 0, 0, 0, 0, 0, 0, 0, 0, 0, 0, 0, 0, 0, 0, 0, 0, 0, 0, 0, 0, 0, 0, 0, 0, 0, 0, 0, 0, 0, 0, 0, 0, 0, 0, 0, 0, 0, 0, 0, 0, 0, 0, 0, 0, 0, 0, 0, 0, 0, 0, 0, 0, 
[2024-06-13 11:56:33.222654] [0x0000007f810809a0] [LogDataTag] [0x00000af8] [19] 1718294193138008, 0.084126, 0, 0, 0, 0, 0, 0, 0, 0, 0, 0, 0, 0, 1.8445e+13, 0.0987695, -0.130782, -0.297612, 0.998981, -0.00892015, -0.0171308, -0.0407895, -0.00105213, 0.00153495, 0.00443738, -2.96855e-05, 0.000624786, 0.000787394, -0.0164354, -0.0349616, -0.0813295, 0, 0, 0, 0, 0, 0, 0, 0, 0, 0, 0, 0, 0, 0, 0, 0, 0, 0, 0, 0, 0, 0, 0, 0, 0, 0, 0, 0, 0, 0, 0, 0, 0, 0, 0, 0, 0, 0, 0, 0, 0, 0, 0, 0, 0, 0, 0, 0, 0, 0, 0, 0, 0, 0, 0, 0, 0, 0, 0, 0, 0, 0, 0, 0, 0, 0, 0, 0, 0, 0, 0, 
[2024-06-13 11:56:33.232775] [0x0000007f810809a0] [LogDataTag] [0x00000af8] [24] 1718294193138008, 0.094348, 0, 0, 0, 0, 0, 0, 0, 0, 0, 0, 0, 0, 1.8445e+13, 0.0987695, -0.130782, -0.297612, 0.998981, -0.00892015, -0.0171308, -0.0407895, -0.00105213, 0.00153495, 0.00443738, -2.96855e-05, 0.000624786, 0.000787394, -0.0164354, -0.0349616, -0.0813295, 0, 0, 0, 0, 0, 0, 0, 0, 0, 0, 0, 0, 0, 0, 0, 0, 0, 0, 0, 0, 0, 0, 0, 0, 0, 0, 0, 0, 0, 0, 0, 0, 0, 0, 0, 0, 0, 0, 0, 0, 0, 0, 0, 0, 0, 0, 0, 0, 0, 0, 0, 0, 0, 0, 0, 0, 0, 0, 0, 0, 0, 0, 0, 0, 0, 0, 0, 0, 0, 0, 0, 
[2024-06-13 11:56:33.242674] [0x0000007f887dd010] [LogDataTag] [0x00000af8] [28] 1718294193138008, 0.104149, 0, 0, 0, 0, 0, 0, 0, 0, 0, 0, 0, 0, 1.8445e+13, 0.0987585, -0.130774, -0.297825, 0.998981, -0.00892472, -0.017135, -0.0407878, -0.00106061, 0.00150305, 0.00446938, 4.95913e-05, -2.02696e-05, -0.000185256, -0.0164443, -0.0349703, -0.0813258, 0, 0, 0, 0, 0, 0, 0, 0, 0, 0, 0, 0, 0, 0, 0, 0, 0, 0, 0, 0, 0, 0, 0, 0, 0, 0, 0, 0, 0, 0, 0, 0, 0, 0, 0, 0, 0, 0, 0, 0, 0, 0, 0, 0, 0, 0, 0, 0, 0, 0, 0, 0, 0, 0, 0, 0, 0, 0, 0, 0, 0, 0, 0, 0, 0, 0, 0, 0, 0, 0, 0, 
[2024-06-13 11:56:33.252677] [0x0000007f887dd010] [LogDataTag] [0x00000af8] [32] 1718294193138008, 0.114147, 0, 0, 0, 0, 0, 0, 0, 0, 0, 0, 0, 0, 1.8445e+13, 0.0987585, -0.130774, -0.297825, 0.998981, -0.00892472, -0.017135, -0.0407878, -0.00106061, 0.00150305, 0.00446938, 4.95913e-05, -2.02696e-05, -0.000185256, -0.0164443, -0.0349703, -0.0813258, 0, 0, 0, 0, 0, 0, 0, 0, 0, 0, 0, 0, 0, 0, 0, 0, 0, 0, 0, 0, 0, 0, 0, 0, 0, 0, 0, 0, 0, 0, 0, 0, 0, 0, 0, 0, 0, 0, 0, 0, 0, 0, 0, 0, 0, 0, 0, 0, 0, 0, 0, 0, 0, 0, 0, 0, 0, 0, 0, 0, 0, 0, 0, 0, 0, 0, 0, 0, 0, 0, 0, 
[2024-06-13 11:56:33.262612] [0x0000007f818819a0] [LogDataTag] [0x00000af8] [37] 1718294193138008, 0.124131, 0, 0, 0, 0, 0, 0, 0, 0, 0, 0, 0, 0, 1.8445e+13, 0.0987457, -0.130764, -0.298019, 0.998981, -0.00892526, -0.0171338, -0.0407863, -0.0011154, 0.00156102, 0.00449823, -0.000150728, -0.000462158, 0.000540119, -0.0164455, -0.0349678, -0.0813229, 0, 0, 0, 0, 0, 0, 0, 0, 0, 0, 0, 0, 0, 0, 0, 0, 0, 0, 0, 0, 0, 0, 0, 0, 0, 0, 0, 0, 0, 0, 0, 0, 0, 0, 0, 0, 0, 0, 0, 0, 0, 0, 0, 0, 0, 0, 0, 0, 0, 0, 0, 0, 0, 0, 0, 0, 0, 0, 0, 0, 0, 0, 0, 0, 0, 0, 0, 0, 0, 0, 0, 
[2024-06-13 11:56:33.272592] [0x0000007f887dd010] [LogDataTag] [0x00000af8] [41] 1718294193138008, 0.134124, 0, 0, 0, 0, 0, 0, 0, 0, 0, 0, 0, 0, 1.8445e+13, 0.0987524, -0.130782, -0.298112, 0.998981, -0.00892344, -0.0171315, -0.0407851, -0.00105991, 0.00147017, 0.00455247, 0.00079098, 0.000332129, -0.000187812, -0.0164421, -0.0349631, -0.0813205, 0, 0, 0, 0, 0, 0, 0, 0, 0, 0, 0, 0, 0, 0, 0, 0, 0, 0, 0, 0, 0, 0, 0, 0, 0, 0, 0, 0, 0, 0, 0, 0, 0, 0, 0, 0, 0, 0, 0, 0, 0, 0, 0, 0, 0, 0, 0, 0, 0, 0, 0, 0, 0, 0, 0, 0, 0, 0, 0, 0, 0, 0, 0, 0, 0, 0, 0, 0, 0, 0, 0, 
[2024-06-13 11:56:33.282603] [0x0000007f810809a0] [LogDataTag] [0x00000af8] [46] 1718294193138008, 0.144129, 0, 0, 0, 0, 0, 0, 0, 0, 0, 0, 0, 0, 1.8445e+13, 0.0987586, -0.1308, -0.298259, 0.998981, -0.00892682, -0.0171307, -0.0407871, -0.00104004, 0.00144365, 0.00449542, -0.000548902, -0.000397409, -0.00106499, -0.0164488, -0.0349619, -0.0813244, 0, 0, 0, 0, 0, 0, 0, 0, 0, 0, 0, 0, 0, 0, 0, 0, 0, 0, 0, 0, 0, 0, 0, 0, 0, 0, 0, 0, 0, 0, 0, 0, 0, 0, 0, 0, 0, 0, 0, 0, 0, 0, 0, 0, 0, 0, 0, 0, 0, 0, 0, 0, 0, 0, 0, 0, 0, 0, 0, 0, 0, 0, 0, 0, 0, 0, 0, 0, 0, 0, 0, 
[2024-06-13 11:56:33.292703] [0x0000007f820829a0] [LogDataTag] [0x00000af8] [51] 1718294193138008, 0.154185, 0, 0, 0, 0, 0, 0, 0, 0, 0, 0, 0, 0, 1.8445e+13, 0.0987639, -0.130815, -0.298389, 0.998981, -0.0089262, -0.017132, -0.0407881, -0.000992887, 0.00135571, 0.00450748, -1.35973e-07, 3.27144e-05, 0.000980207, -0.0164474, -0.0349643, -0.0813264, 0, 0, 0, 0, 0, 0, 0, 0, 0, 0, 0, 0, 0, 0, 0, 0, 0, 0, 0, 0, 0, 0, 0, 0, 0, 0, 0, 0, 0, 0, 0, 0, 0, 0, 0, 0, 0, 0, 0, 0, 0, 0, 0, 0, 0, 0, 0, 0, 0, 0, 0, 0, 0, 0, 0, 0, 0, 0, 0, 0, 0, 0, 0, 0, 0, 0, 0, 0, 0, 0, 0, 
[2024-06-13 11:56:33.302588] [0x0000007f820829a0] [LogDataTag] [0x00000af8] [56] 1718294193138008, 0.164143, 0, 0, 0, 0, 0, 0, 0, 0, 0, 0, 0, 0, 1.8445e+13, 0.0987639, -0.130815, -0.298389, 0.998981, -0.0089262, -0.017132, -0.0407881, -0.000992887, 0.00135571, 0.00450748, -1.35973e-07, 3.27144e-05, 0.000980207, -0.0164474, -0.0349643, -0.0813264, 0, 0, 0, 0, 0, 0, 0, 0, 0, 0, 0, 0, 0, 0, 0, 0, 0, 0, 0, 0, 0, 0, 0, 0, 0, 0, 0, 0, 0, 0, 0, 0, 0, 0, 0, 0, 0, 0, 0, 0, 0, 0, 0, 0, 0, 0, 0, 0, 0, 0, 0, 0, 0, 0, 0, 0, 0, 0, 0, 0, 0, 0, 0, 0, 0, 0, 0, 0, 0, 0, 0, 
[2024-06-13 11:56:33.312604] [0x0000007f887dd010] [LogDataTag] [0x00000af8] [60] 1718294193138008, 0.174136, 0, 0, 0, 0, 0, 0, 0, 0, 0, 0, 0, 0, 1.8445e+13, 0.0987722, -0.130842, -0.298603, 0.998981, -0.00893259, -0.0171308, -0.0407933, -0.000992464, 0.00127558, 0.00454797, -0.000126548, -0.000570628, -0.000298838, -0.0164601, -0.0349626, -0.0813367, 0, 0, 0, 0, 0, 0, 0, 0, 0, 0, 0, 0, 0, 0, 0, 0, 0, 0, 0, 0, 0, 0, 0, 0, 0, 0, 0, 0, 0, 0, 0, 0, 0, 0, 0, 0, 0, 0, 0, 0, 0, 0, 0, 0, 0, 0, 0, 0, 0, 0, 0, 0, 0, 0, 0, 0, 0, 0, 0, 0, 0, 0, 0, 0, 0, 0, 0, 0, 0, 0, 0, 
[2024-06-13 11:56:33.322556] [0x0000007f820829a0] [LogDataTag] [0x00000af8] [65] 1718294193138008, 0.184128, 0, 0, 0, 0, 0, 0, 0, 0, 0, 0, 0, 0, 1.8445e+13, 0.0987752, -0.130853, -0.298855, 0.998981, -0.0089314, -0.0171327, -0.0407933, -0.000901686, 0.00127779, 0.00442075, 0.000667732, -0.000174325, -0.000790508, -0.0164576, -0.0349662, -0.0813367, 0, 0, 0, 0, 0, 0, 0, 0, 0, 0, 0, 0, 0, 0, 0, 0, 0, 0, 0, 0, 0, 0, 0, 0, 0, 0, 0, 0, 0, 0, 0, 0, 0, 0, 0, 0, 0, 0, 0, 0, 0, 0, 0, 0, 0, 0, 0, 0, 0, 0, 0, 0, 0, 0, 0, 0, 0, 0, 0, 0, 0, 0, 0, 0, 0, 0, 0, 0, 0, 0, 0, 
[2024-06-13 11:56:33.332574] [0x0000007f818819a0] [LogDataTag] [0x00000af8] [69] 1718294193138008, 0.194128, 0, 0, 0, 0, 0, 0, 0, 0, 0, 0, 0, 0, 1.8445e+13, 0.0987777, -0.130862, -0.299081, 0.998981, -0.0089305, -0.0171356, -0.040794, -0.00094439, 0.00123202, 0.00439433, -0.00041935, -0.000656848, -6.72078e-05, -0.0164555, -0.0349719, -0.081338, 0, 0, 0, 0, 0, 0, 0, 0, 0, 0, 0, 0, 0, 0, 0, 0, 0, 0, 0, 0, 0, 0, 0, 0, 0, 0, 0, 0, 0, 0, 0, 0, 0, 0, 0, 0, 0, 0, 0, 0, 0, 0, 0, 0, 0, 0, 0, 0, 0, 0, 0, 0, 0, 0, 0, 0, 0, 0, 0, 0, 0, 0, 0, 0, 0, 0, 0, 0, 0, 0, 0, 
[2024-06-13 11:56:33.342605] [0x0000007f810809a0] [LogDataTag] [0x00000af8] [74] 1718294193138008, 0.204133, 0, 0, 0, 0, 0, 0, 0, 0, 0, 0, 0, 0, 1.8445e+13, 0.0987792, -0.13087, -0.299283, 0.998981, -0.00893196, -0.0171381, -0.0407939, -0.000940474, 0.00121019, 0.00439137, 0.000300463, -0.000614669, 6.59485e-05, -0.0164583, -0.0349772, -0.0813379, 0, 0, 0, 0, 0, 0, 0, 0, 0, 0, 0, 0, 0, 0, 0, 0, 0, 0, 0, 0, 0, 0, 0, 0, 0, 0, 0, 0, 0, 0, 0, 0, 0, 0, 0, 0, 0, 0, 0, 0, 0, 0, 0, 0, 0, 0, 0, 0, 0, 0, 0, 0, 0, 0, 0, 0, 0, 0, 0, 0, 0, 0, 0, 0, 0, 0, 0, 0, 0, 0, 0, 
[2024-06-13 11:56:33.352645] [0x0000007f810809a0] [LogDataTag] [0x00000af8] [78] 1718294193138008, 0.214132, 0, 0, 0, 0, 0, 0, 0, 0, 0, 0, 0, 0, 1.8445e+13, 0.0987792, -0.13087, -0.299283, 0.998981, -0.00893196, -0.0171381, -0.0407939, -0.000940474, 0.00121019, 0.00439137, 0.000300463, -0.000614669, 6.59485e-05, -0.0164583, -0.0349772, -0.0813379, 0, 0, 0, 0, 0, 0, 0, 0, 0, 0, 0, 0, 0, 0, 0, 0, 0, 0, 0, 0, 0, 0, 0, 0, 0, 0, 0, 0, 0, 0, 0, 0, 0, 0, 0, 0, 0, 0, 0, 0, 0, 0, 0, 0, 0, 0, 0, 0, 0, 0, 0, 0, 0, 0, 0, 0, 0, 0, 0, 0, 0, 0, 0, 0, 0, 0, 0, 0, 0, 0, 0, 
[2024-06-13 11:56:33.362806] [0x0000007f820829a0] [LogDataTag] [0x00000af8] [83] 1718294193138008, 0.224379, 0, 0, 0, 0, 0, 0, 0, 0, 0, 0, 0, 0, 1.8445e+13, 0.0987815, -0.130882, -0.299625, 0.998981, -0.0089373, -0.0171403, -0.040791, -0.000831636, 0.00120831, 0.00420801, -0.000213662, 0.00015373, -0.000356791, -0.0164689, -0.0349819, -0.0813318, 0, 0, 0, 0, 0, 0, 0, 0, 0, 0, 0, 0, 0, 0, 0, 0, 0, 0, 0, 0, 0, 0, 0, 0, 0, 0, 0, 0, 0, 0, 0, 0, 0, 0, 0, 0, 0, 0, 0, 0, 0, 0, 0, 0, 0, 0, 0, 0, 0, 0, 0, 0, 0, 0, 0, 0, 0, 0, 0, 0, 0, 0, 0, 0, 0, 0, 0, 0, 0, 0, 0, 
[2024-06-13 11:56:33.372619] [0x0000007f810809a0] [LogDataTag] [0x00000af8] [87] 1718294193138008, 0.234135, 0, 0, 0, 0, 0, 0, 0, 0, 0, 0, 0, 0, 1.8445e+13, 0.0987819, -0.130886, -0.299758, 0.998981, -0.00893929, -0.0171411, -0.040794, -0.000831967, 0.00116108, 0.00414736, -0.000517214, -0.000937469, -0.00108428, -0.0164727, -0.0349838, -0.0813378, 0, 0, 0, 0, 0, 0, 0, 0, 0, 0, 0, 0, 0, 0, 0, 0, 0, 0, 0, 0, 0, 0, 0, 0, 0, 0, 0, 0, 0, 0, 0, 0, 0, 0, 0, 0, 0, 0, 0, 0, 0, 0, 0, 0, 0, 0, 0, 0, 0, 0, 0, 0, 0, 0, 0, 0, 0, 0, 0, 0, 0, 0, 0, 0, 0, 0, 0, 0, 0, 0, 0, 
[2024-06-13 11:56:33.382604] [0x0000007f810809a0] [LogDataTag] [0x00000af8] [92] 1718294193138008, 0.244138, 0, 0, 0, 0, 0, 0, 0, 0, 0, 0, 0, 0, 1.8445e+13, 0.0987819, -0.130886, -0.299758, 0.998981, -0.00893929, -0.0171411, -0.040794, -0.000831967, 0.00116108, 0.00414736, -0.000517214, -0.000937469, -0.00108428, -0.0164727, -0.0349838, -0.0813378, 0, 0, 0, 0, 0, 0, 0, 0, 0, 0, 0, 0, 0, 0, 0, 0, 0, 0, 0, 0, 0, 0, 0, 0, 0, 0, 0, 0, 0, 0, 0, 0, 0, 0, 0, 0, 0, 0, 0, 0, 0, 0, 0, 0, 0, 0, 0, 0, 0, 0, 0, 0, 0, 0, 0, 0, 0, 0, 0, 0, 0, 0, 0, 0, 0, 0, 0, 0, 0, 0, 0, 
[2024-06-13 11:56:33.392629] [0x0000007f818819a0] [LogDataTag] [0x00000af8] [96] 1718294193138008, 0.254145, 0, 0, 0, 0, 0, 0, 0, 0, 0, 0, 0, 0, 1.8445e+13, 0.0987816, -0.130893, -0.299979, 0.998981, -0.00894515, -0.0171437, -0.0407938, -0.000810631, 0.00116158, 0.00420309, -0.00110001, -0.000822581, 2.09833e-05, -0.0164842, -0.0349895, -0.0813372, 0, 0, 0, 0, 0, 0, 0, 0, 0, 0, 0, 0, 0, 0, 0, 0, 0, 0, 0, 0, 0, 0, 0, 0, 0, 0, 0, 0, 0, 0, 0, 0, 0, 0, 0, 0, 0, 0, 0, 0, 0, 0, 0, 0, 0, 0, 0, 0, 0, 0, 0, 0, 0, 0, 0, 0, 0, 0, 0, 0, 0, 0, 0, 0, 0, 0, 0, 0, 0, 0, 0, 
[2024-06-13 11:56:33.402597] [0x0000007f818819a0] [LogDataTag] [0x00000af8] [101] 1718294193138008, 0.264116, 0, 0, 0, 0, 0, 0, 0, 0, 0, 0, 0, 0, 1.8445e+13, 0.0987808, -0.130894, -0.300068, 0.99898, -0.00894597, -0.0171434, -0.0407947, -0.000780068, 0.00114447, 0.00421307, -0.000262772, 0.000274301, -0.000399611, -0.0164858, -0.0349888, -0.0813389, 0, 0, 0, 0, 0, 0, 0, 0, 0, 0, 0, 0, 0, 0, 0, 0, 0, 0, 0, 0, 0, 0, 0, 0, 0, 0, 0, 0, 0, 0, 0, 0, 0, 0, 0, 0, 0, 0, 0, 0, 0, 0, 0, 0, 0, 0, 0, 0, 0, 0, 0, 0, 0, 0, 0, 0, 0, 0, 0, 0, 0, 0, 0, 0, 0, 0, 0, 0, 0, 0, 0, 
[2024-06-13 11:56:33.412638] [0x0000007f818819a0] [LogDataTag] [0x00000af8] [105] 1718294193138008, 0.274157, 0, 0, 0, 0, 0, 0, 0, 0, 0, 0, 0, 0, 1.8445e+13, 0.0987808, -0.130894, -0.300068, 0.99898, -0.00894597, -0.0171434, -0.0407947, -0.000780068, 0.00114447, 0.00421307, -0.000262772, 0.000274301, -0.000399611, -0.0164858, -0.0349888, -0.0813389, 0, 0, 0, 0, 0, 0, 0, 0, 0, 0, 0, 0, 0, 0, 0, 0, 0, 0, 0, 0, 0, 0, 0, 0, 0, 0, 0, 0, 0, 0, 0, 0, 0, 0, 0, 0, 0, 0, 0, 0, 0, 0, 0, 0, 0, 0, 0, 0, 0, 0, 0, 0, 0, 0, 0, 0, 0, 0, 0, 0, 0, 0, 0, 0, 0, 0, 0, 0, 0, 0, 0, 
[2024-06-13 11:56:33.422627] [0x0000007f810809a0] [LogDataTag] [0x00000af8] [110] 1718294193138008, 0.284131, 0, 0, 0, 0, 0, 0, 0, 0, 0, 0, 0, 0, 1.8445e+13, 0.102725, -0.131766, -0.308675, 0.99898, -0.00894837, -0.0171431, -0.0407988, -0.000765599, 0.00116826, 0.00418766, -0.00093705, 0.000516836, -0.000735969, -0.0164905, -0.0349886, -0.081347, 0, 0, 0, 0, 0, 0, 0, 0, 0, 0, 0, 0, 0, 0, 0, 0, 0, 0, 0, 0, 0, 0, 0, 0, 0, 0, 0, 0, 0, 0, 0, 0, 0, 0, 0, 0, 0, 0, 0, 0, 0, 0, 0, 0, 0, 0, 0, 0, 0, 0, 0, 0, 0, 0, 0, 0, 0, 0, 0, 0, 0, 0, 0, 0, 0, 0, 0, 0, 0, 0, 0, 
[2024-06-13 11:56:33.432610] [0x0000007f810809a0] [LogDataTag] [0x00000af8] [114] 1718294193138008, 0.294146, 0, 0, 0, 0, 0, 0, 0, 0, 0, 0, 0, 0, 1.8445e+13, 0.102724, -0.131766, -0.308742, 0.99898, -0.00894981, -0.0171461, -0.0408004, -0.000718801, 0.00117725, 0.00417561, -3.07993e-05, -0.000879582, -0.000324086, -0.0164931, -0.0349947, -0.0813501, 0, 0, 0, 0, 0, 0, 0, 0, 0, 0, 0, 0, 0, 0, 0, 0, 0, 0, 0, 0, 0, 0, 0, 0, 0, 0, 0, 0, 0, 0, 0, 0, 0, 0, 0, 0, 0, 0, 0, 0, 0, 0, 0, 0, 0, 0, 0, 0, 0, 0, 0, 0, 0, 0, 0, 0, 0, 0, 0, 0, 0, 0, 0, 0, 0, 0, 0, 0, 0, 0, 0, 
[2024-06-13 11:56:33.442466] [0x0000007f887dd010] [LogDataTag] [0x00000af8] [118] 1718294193138008, 0.303995, 0, 0, 0, 0, 0, 0, 0, 0, 0, 0, 0, 0, 1.8445e+13, 0.102724, -0.131765, -0.308855, 0.99898, -0.00894854, -0.017149, -0.0408003, -0.000761695, 0.00115644, 0.00413323, 0.00034011, -0.000815338, -0.000386354, -0.0164903, -0.0350005, -0.0813499, 0, 0, 0, 0, 0, 0, 0, 0, 0, 0, 0, 0, 0, 0, 0, 0, 0, 0, 0, 0, 0, 0, 0, 0, 0, 0, 0, 0, 0, 0, 0, 0, 0, 0, 0, 0, 0, 0, 0, 0, 0, 0, 0, 0, 0, 0, 0, 0, 0, 0, 0, 0, 0, 0, 0, 0, 0, 0, 0, 0, 0, 0, 0, 0, 0, 0, 0, 0, 0, 0, 0, 
[2024-06-13 11:56:33.452584] [0x0000007f887dd010] [LogDataTag] [0x00000af8] [123] 1718294193138008, 0.314122, 0, 0, 0, 0, 0, 0, 0, 0, 0, 0, 0, 0, 1.8445e+13, 0.102724, -0.131765, -0.308855, 0.99898, -0.00894854, -0.017149, -0.0408003, -0.000761695, 0.00115644, 0.00413323, 0.00034011, -0.000815338, -0.000386354, -0.0164903, -0.0350005, -0.0813499, 0, 0, 0, 0, 0, 0, 0, 0, 0, 0, 0, 0, 0, 0, 0, 0, 0, 0, 0, 0, 0, 0, 0, 0, 0, 0, 0, 0, 0, 0, 0, 0, 0, 0, 0, 0, 0, 0, 0, 0, 0, 0, 0, 0, 0, 0, 0, 0, 0, 0, 0, 0, 0, 0, 0, 0, 0, 0, 0, 0, 0, 0, 0, 0, 0, 0, 0, 0, 0, 0, 0, 
[2024-06-13 11:56:33.462581] [0x0000007f810809a0] [LogDataTag] [0x00000af8] [127] 1718294193138008, 0.324116, 0, 0, 0, 0, 0, 0, 0, 0, 0, 0, 0, 0, 1.8445e+13, 0.102724, -0.131765, -0.308903, 0.99898, -0.0089487, -0.017151, -0.0407996, -0.000737304, 0.00110413, 0.0041308, 1.42232e-05, -0.000327173, -0.00105865, -0.0164905, -0.0350043, -0.0813486, 0, 0, 0, 0, 0, 0, 0, 0, 0, 0, 0, 0, 0, 0, 0, 0, 0, 0, 0, 0, 0, 0, 0, 0, 0, 0, 0, 0, 0, 0, 0, 0, 0, 0, 0, 0, 0, 0, 0, 0, 0, 0, 0, 0, 0, 0, 0, 0, 0, 0, 0, 0, 0, 0, 0, 0, 0, 0, 0, 0, 0, 0, 0, 0, 0, 0, 0, 0, 0, 0, 0, 
[2024-06-13 11:56:33.472590] [0x0000007f887dd010] [LogDataTag] [0x00000af8] [132] 1718294193138008, 0.334118, 0, 0, 0, 0, 0, 0, 0, 0, 0, 0, 0, 0, 1.8445e+13, 0.102723, -0.131765, -0.308981, 0.99898, -0.0089548, -0.0171494, -0.0408009, -0.000675572, 0.001187, 0.0040854, -0.000885413, 0.000806737, 0.000697748, -0.0165028, -0.0350017, -0.0813509, 0, 0, 0, 0, 0, 0, 0, 0, 0, 0, 0, 0, 0, 0, 0, 0, 0, 0, 0, 0, 0, 0, 0, 0, 0, 0, 0, 0, 0, 0, 0, 0, 0, 0, 0, 0, 0, 0, 0, 0, 0, 0, 0, 0, 0, 0, 0, 0, 0, 0, 0, 0, 0, 0, 0, 0, 0, 0, 0, 0, 0, 0, 0, 0, 0, 0, 0, 0, 0, 0, 0, 
[2024-06-13 11:56:33.482546] [0x0000007f887dd010] [LogDataTag] [0x00000af8] [137] 1718294193138008, 0.344135, 0, 0, 0, 0, 0, 0, 0, 0, 0, 0, 0, 0, 1.8445e+13, 0.102723, -0.131765, -0.308981, 0.99898, -0.0089548, -0.0171494, -0.0408009, -0.000675572, 0.001187, 0.0040854, -0.000885413, 0.000806737, 0.000697748, -0.0165028, -0.0350017, -0.0813509, 0, 0, 0, 0, 0, 0, 0, 0, 0, 0, 0, 0, 0, 0, 0, 0, 0, 0, 0, 0, 0, 0, 0, 0, 0, 0, 0, 0, 0, 0, 0, 0, 0, 0, 0, 0, 0, 0, 0, 0, 0, 0, 0, 0, 0, 0, 0, 0, 0, 0, 0, 0, 0, 0, 0, 0, 0, 0, 0, 0, 0, 0, 0, 0, 0, 0, 0, 0, 0, 0, 0, 
[2024-06-13 11:56:33.492516] [0x0000007f820829a0] [LogDataTag] [0x00000af8] [141] 1718294193138008, 0.354069, 0, 0, 0, 0, 0, 0, 0, 0, 0, 0, 0, 0, 1.8445e+13, 0.102722, -0.131762, -0.309041, 0.99898, -0.00895669, -0.0171509, -0.0408035, -0.000743599, 0.00125129, 0.00404598, -0.000442649, -0.00052086, 3.24909e-05, -0.0165063, -0.0350048, -0.081356, 0, 0, 0, 0, 0, 0, 0, 0, 0, 0, 0, 0, 0, 0, 0, 0, 0, 0, 0, 0, 0, 0, 0, 0, 0, 0, 0, 0, 0, 0, 0, 0, 0, 0, 0, 0, 0, 0, 0, 0, 0, 0, 0, 0, 0, 0, 0, 0, 0, 0, 0, 0, 0, 0, 0, 0, 0, 0, 0, 0, 0, 0, 0, 0, 0, 0, 0, 0, 0, 0, 0, 
[2024-06-13 11:56:33.502629] [0x0000007f820829a0] [LogDataTag] [0x00000af8] [146] 1718294193138008, 0.364139, 0, 0, 0, 0, 0, 0, 0, 0, 0, 0, 0, 0, 1.8445e+13, 0.102722, -0.131762, -0.309041, 0.99898, -0.00895669, -0.0171509, -0.0408035, -0.000743599, 0.00125129, 0.00404598, -0.000442649, -0.00052086, 3.24909e-05, -0.0165063, -0.0350048, -0.081356, 0, 0, 0, 0, 0, 0, 0, 0, 0, 0, 0, 0, 0, 0, 0, 0, 0, 0, 0, 0, 0, 0, 0, 0, 0, 0, 0, 0, 0, 0, 0, 0, 0, 0, 0, 0, 0, 0, 0, 0, 0, 0, 0, 0, 0, 0, 0, 0, 0, 0, 0, 0, 0, 0, 0, 0, 0, 0, 0, 0, 0, 0, 0, 0, 0, 0, 0, 0, 0, 0, 0, 
[2024-06-13 11:56:33.512588] [0x0000007f818819a0] [LogDataTag] [0x00000af8] [150] 1718294193138008, 0.374123, 0, 0, 0, 0, 0, 0, 0, 0, 0, 0, 0, 0, 1.8445e+13, 0.102721, -0.131759, -0.309066, 0.99898, -0.0089589, -0.0171496, -0.0407989, -0.000717073, 0.00132276, 0.00397222, -0.000579748, 0.00133633, 0.000436677, -0.016511, -0.0350024, -0.0813468, 0, 0, 0, 0, 0, 0, 0, 0, 0, 0, 0, 0, 0, 0, 0, 0, 0, 0, 0, 0, 0, 0, 0, 0, 0, 0, 0, 0, 0, 0, 0, 0, 0, 0, 0, 0, 0, 0, 0, 0, 0, 0, 0, 0, 0, 0, 0, 0, 0, 0, 0, 0, 0, 0, 0, 0, 0, 0, 0, 0, 0, 0, 0, 0, 0, 0, 0, 0, 0, 0, 0, 
[2024-06-13 11:56:33.522589] [0x0000007f887dd010] [LogDataTag] [0x00000af8] [155] 1718294193138008, 0.384153, 0, 0, 0, 0, 0, 0, 0, 0, 0, 0, 0, 0, 1.8445e+13, 0.10272, -0.131756, -0.309087, 0.99898, -0.00895708, -0.0171497, -0.0407993, -0.000629175, 0.00121437, 0.0039302, 0.000659496, 1.62285e-05, -0.000157284, -0.0165074, -0.0350025, -0.0813476, 0, 0, 0, 0, 0, 0, 0, 0, 0, 0, 0, 0, 0, 0, 0, 0, 0, 0, 0, 0, 0, 0, 0, 0, 0, 0, 0, 0, 0, 0, 0, 0, 0, 0, 0, 0, 0, 0, 0, 0, 0, 0, 0, 0, 0, 0, 0, 0, 0, 0, 0, 0, 0, 0, 0, 0, 0, 0, 0, 0, 0, 0, 0, 0, 0, 0, 0, 0, 0, 0, 0, 
[2024-06-13 11:56:33.532605] [0x0000007f810809a0] [LogDataTag] [0x00000af8] [159] 1718294193138008, 0.394118, 0, 0, 0, 0, 0, 0, 0, 0, 0, 0, 0, 0, 1.8445e+13, 0.10272, -0.131754, -0.309106, 0.99898, -0.00895758, -0.0171516, -0.0408017, -0.000618841, 0.00119005, 0.00387682, -0.000111733, -0.000483315, -0.000861004, -0.0165081, -0.0350064, -0.0813524, 0, 0, 0, 0, 0, 0, 0, 0, 0, 0, 0, 0, 0, 0, 0, 0, 0, 0, 0, 0, 0, 0, 0, 0, 0, 0, 0, 0, 0, 0, 0, 0, 0, 0, 0, 0, 0, 0, 0, 0, 0, 0, 0, 0, 0, 0, 0, 0, 0, 0, 0, 0, 0, 0, 0, 0, 0, 0, 0, 0, 0, 0, 0, 0, 0, 0, 0, 0, 0, 0, 0, 
[2024-06-13 11:56:33.542617] [0x0000007f820829a0] [LogDataTag] [0x00000af8] [164] 1718294193138008, 0.40414, 0, 0, 0, 0, 0, 0, 0, 0, 0, 0, 0, 0, 1.8445e+13, 0.10272, -0.131752, -0.309126, 0.99898, -0.00895723, -0.0171492, -0.0408004, -0.000607574, 0.00112642, 0.00377393, 0.000629479, 0.000888945, 0.00021307, -0.0165077, -0.0350014, -0.0813498, 0, 0, 0, 0, 0, 0, 0, 0, 0, 0, 0, 0, 0, 0, 0, 0, 0, 0, 0, 0, 0, 0, 0, 0, 0, 0, 0, 0, 0, 0, 0, 0, 0, 0, 0, 0, 0, 0, 0, 0, 0, 0, 0, 0, 0, 0, 0, 0, 0, 0, 0, 0, 0, 0, 0, 0, 0, 0, 0, 0, 0, 0, 0, 0, 0, 0, 0, 0, 0, 0, 0, 
[2024-06-13 11:56:33.552571] [0x0000007f818819a0] [LogDataTag] [0x00000af8] [169] 1718294193138008, 0.414129, 0, 0, 0, 0, 0, 0, 0, 0, 0, 0, 0, 0, 1.8445e+13, 0.102721, -0.131751, -0.309146, 0.99898, -0.0089587, -0.017153, -0.0408019, -0.000570094, 0.00101652, 0.00370226, -0.00054177, -0.000893183, -2.95566e-07, -0.0165102, -0.0350092, -0.0813526, 0, 0, 0, 0, 0, 0, 0, 0, 0, 0, 0, 0, 0, 0, 0, 0, 0, 0, 0, 0, 0, 0, 0, 0, 0, 0, 0, 0, 0, 0, 0, 0, 0, 0, 0, 0, 0, 0, 0, 0, 0, 0, 0, 0, 0, 0, 0, 0, 0, 0, 0, 0, 0, 0, 0, 0, 0, 0, 0, 0, 0, 0, 0, 0, 0, 0, 0, 0, 0, 0, 0, 
[2024-06-13 11:56:33.562603] [0x0000007f887dd010] [LogDataTag] [0x00000af8] [173] 1718294193138008, 0.424152, 0, 0, 0, 0, 0, 0, 0, 0, 0, 0, 0, 0, 1.8445e+13, 0.102721, -0.131749, -0.309162, 0.99898, -0.00896271, -0.0171525, -0.0408037, -0.000587354, 0.000986655, 0.00362018, -0.00068503, 0.000442826, -0.000560446, -0.0165182, -0.0350086, -0.0813562, 0, 0, 0, 0, 0, 0, 0, 0, 0, 0, 0, 0, 0, 0, 0, 0, 0, 0, 0, 0, 0, 0, 0, 0, 0, 0, 0, 0, 0, 0, 0, 0, 0, 0, 0, 0, 0, 0, 0, 0, 0, 0, 0, 0, 0, 0, 0, 0, 0, 0, 0, 0, 0, 0, 0, 0, 0, 0, 0, 0, 0, 0, 0, 0, 0, 0, 0, 0, 0, 0, 0, 
[2024-06-13 11:56:33.572614] [0x0000007f810809a0] [LogDataTag] [0x00000af8] [178] 1718294193138008, 0.434123, 0, 0, 0, 0, 0, 0, 0, 0, 0, 0, 0, 0, 1.8445e+13, 0.102721, -0.131749, -0.30918, 0.99898, -0.00896123, -0.0171517, -0.0408051, -0.000544093, 0.000973815, 0.00353756, 0.000643356, 0.00087021, 9.82453e-05, -0.0165153, -0.0350069, -0.0813591, 0, 0, 0, 0, 0, 0, 0, 0, 0, 0, 0, 0, 0, 0, 0, 0, 0, 0, 0, 0, 0, 0, 0, 0, 0, 0, 0, 0, 0, 0, 0, 0, 0, 0, 0, 0, 0, 0, 0, 0, 0, 0, 0, 0, 0, 0, 0, 0, 0, 0, 0, 0, 0, 0, 0, 0, 0, 0, 0, 0, 0, 0, 0, 0, 0, 0, 0, 0, 0, 0, 0, 
[2024-06-13 11:56:33.582617] [0x0000007f820829a0] [LogDataTag] [0x00000af8] [183] 1718294193138008, 0.444149, 0, 0, 0, 0, 0, 0, 0, 0, 0, 0, 0, 0, 1.8445e+13, 0.102722, -0.131747, -0.309195, 0.99898, -0.00896136, -0.017151, -0.0408084, -0.000572997, 0.000959526, 0.00343411, 0.000443611, 0.000853932, -0.000565985, -0.0165155, -0.0350055, -0.0813656, 0, 0, 0, 0, 0, 0, 0, 0, 0, 0, 0, 0, 0, 0, 0, 0, 0, 0, 0, 0, 0, 0, 0, 0, 0, 0, 0, 0, 0, 0, 0, 0, 0, 0, 0, 0, 0, 0, 0, 0, 0, 0, 0, 0, 0, 0, 0, 0, 0, 0, 0, 0, 0, 0, 0, 0, 0, 0, 0, 0, 0, 0, 0, 0, 0, 0, 0, 0, 0, 0, 0, 
[2024-06-13 11:56:33.592659] [0x0000007f820829a0] [LogDataTag] [0x00000af8] [187] 1718294193138008, 0.454151, 0, 0, 0, 0, 0, 0, 0, 0, 0, 0, 0, 0, 1.8445e+13, 0.102722, -0.131746, -0.309212, 0.99898, -0.00896284, -0.0171527, -0.0408096, -0.000590739, 0.000969638, 0.00324827, -0.000171924, 0.000216444, -0.000577575, -0.0165183, -0.0350091, -0.081368, 0, 0, 0, 0, 0, 0, 0, 0, 0, 0, 0, 0, 0, 0, 0, 0, 0, 0, 0, 0, 0, 0, 0, 0, 0, 0, 0, 0, 0, 0, 0, 0, 0, 0, 0, 0, 0, 0, 0, 0, 0, 0, 0, 0, 0, 0, 0, 0, 0, 0, 0, 0, 0, 0, 0, 0, 0, 0, 0, 0, 0, 0, 0, 0, 0, 0, 0, 0, 0, 0, 0, 
[2024-06-13 11:56:33.602624] [0x0000007f887dd010] [LogDataTag] [0x00000af8] [192] 1718294193138008, 0.464149, 0, 0, 0, 0, 0, 0, 0, 0, 0, 0, 0, 0, 1.8445e+13, 0.102722, -0.131745, -0.309228, 0.998979, -0.008965, -0.0171568, -0.0408117, -0.000589309, 0.000925811, 0.00313832, -0.000434245, -0.0012963, -0.000888268, -0.0165222, -0.0350174, -0.0813721, 0, 0, 0, 0, 0, 0, 0, 0, 0, 0, 0, 0, 0, 0, 0, 0, 0, 0, 0, 0, 0, 0, 0, 0, 0, 0, 0, 0, 0, 0, 0, 0, 0, 0, 0, 0, 0, 0, 0, 0, 0, 0, 0, 0, 0, 0, 0, 0, 0, 0, 0, 0, 0, 0, 0, 0, 0, 0, 0, 0, 0, 0, 0, 0, 0, 0, 0, 0, 0, 0, 0, 
[2024-06-13 11:56:33.612541] [0x0000007f887dd010] [LogDataTag] [0x00000af8] [197] 1718294193138008, 0.474131, 0, 0, 0, 0, 0, 0, 0, 0, 0, 0, 0, 0, 1.8445e+13, 0.102723, -0.131745, -0.309246, 0.998979, -0.00896685, -0.0171584, -0.0408143, -0.000595757, 0.000832692, 0.00302773, -0.000508617, -0.000903986, -0.000269079, -0.0165257, -0.0350208, -0.0813772, 0, 0, 0, 0, 0, 0, 0, 0, 0, 0, 0, 0, 0, 0, 0, 0, 0, 0, 0, 0, 0, 0, 0, 0, 0, 0, 0, 0, 0, 0, 0, 0, 0, 0, 0, 0, 0, 0, 0, 0, 0, 0, 0, 0, 0, 0, 0, 0, 0, 0, 0, 0, 0, 0, 0, 0, 0, 0, 0, 0, 0, 0, 0, 0, 0, 0, 0, 0, 0, 0, 0, 
[2024-06-13 11:56:33.622637] [0x0000007f818819a0] [LogDataTag] [0x00000af8] [201] 1718294193138008, 0.484138, 0, 0, 0, 0, 0, 0, 0, 0, 0, 0, 0, 0, 1.8445e+13, 0.102724, -0.131746, -0.309266, 0.998979, -0.00896604, -0.0171617, -0.040813, -0.000581071, 0.000834123, 0.00288998, 0.000207203, -0.000481174, 0.000912247, -0.0165238, -0.0350273, -0.0813746, 0, 0, 0, 0, 0, 0, 0, 0, 0, 0, 0, 0, 0, 0, 0, 0, 0, 0, 0, 0, 0, 0, 0, 0, 0, 0, 0, 0, 0, 0, 0, 0, 0, 0, 0, 0, 0, 0, 0, 0, 0, 0, 0, 0, 0, 0, 0, 0, 0, 0, 0, 0, 0, 0, 0, 0, 0, 0, 0, 0, 0, 0, 0, 0, 0, 0, 0, 0, 0, 0, 0, 
[2024-06-13 11:56:33.632604] [0x0000007f820829a0] [LogDataTag] [0x00000af8] [206] 1718294193138008, 0.49414, 0, 0, 0, 0, 0, 0, 0, 0, 0, 0, 0, 0, 1.8445e+13, 0.102724, -0.131746, -0.309285, 0.998979, -0.00896548, -0.0171627, -0.0408149, -0.000603095, 0.000769059, 0.00279658, 9.67128e-05, -0.000497684, 8.50184e-05, -0.0165225, -0.0350293, -0.0813784, 0, 0, 0, 0, 0, 0, 0, 0, 0, 0, 0, 0, 0, 0, 0, 0, 0, 0, 0, 0, 0, 0, 0, 0, 0, 0, 0, 0, 0, 0, 0, 0, 0, 0, 0, 0, 0, 0, 0, 0, 0, 0, 0, 0, 0, 0, 0, 0, 0, 0, 0, 0, 0, 0, 0, 0, 0, 0, 0, 0, 0, 0, 0, 0, 0, 0, 0, 0, 0, 0, 0, 
[2024-06-13 11:56:33.642625] [0x0000007f820829a0] [LogDataTag] [0x00000af8] [210] 1718294193138008, 0.504139, 0, 0, 0, 0, 0, 0, 0, 0, 0, 0, 0, 0, 1.8445e+13, 0.102724, -0.131746, -0.309285, 0.998979, -0.00896548, -0.0171627, -0.0408149, -0.000603095, 0.000769059, 0.00279658, 9.67128e-05, -0.000497684, 8.50184e-05, -0.0165225, -0.0350293, -0.0813784, 0, 0, 0, 0, 0, 0, 0, 0, 0, 0, 0, 0, 0, 0, 0, 0, 0, 0, 0, 0, 0, 0, 0, 0, 0, 0, 0, 0, 0, 0, 0, 0, 0, 0, 0, 0, 0, 0, 0, 0, 0, 0, 0, 0, 0, 0, 0, 0, 0, 0, 0, 0, 0, 0, 0, 0, 0, 0, 0, 0, 0, 0, 0, 0, 0, 0, 0, 0, 0, 0, 0, 
[2024-06-13 11:56:33.652604] [0x0000007f818819a0] [LogDataTag] [0x00000af8] [215] 1718294193138008, 0.514122, 0, 0, 0, 0, 0, 0, 0, 0, 0, 0, 0, 0, 1.8445e+13, 0.102725, -0.131748, -0.309306, 0.998979, -0.00896853, -0.017165, -0.0408158, -0.00057299, 0.000715914, 0.00268467, 0.000115293, -0.000515003, -0.000346859, -0.0165284, -0.0350342, -0.0813801, 0, 0, 0, 0, 0, 0, 0, 0, 0, 0, 0, 0, 0, 0, 0, 0, 0, 0, 0, 0, 0, 0, 0, 0, 0, 0, 0, 0, 0, 0, 0, 0, 0, 0, 0, 0, 0, 0, 0, 0, 0, 0, 0, 0, 0, 0, 0, 0, 0, 0, 0, 0, 0, 0, 0, 0, 0, 0, 0, 0, 0, 0, 0, 0, 0, 0, 0, 0, 0, 0, 0, 
[2024-06-13 11:56:33.662521] [0x0000007f810809a0] [LogDataTag] [0x00000af8] [219] 1718294193138008, 0.524062, 0, 0, 0, 0, 0, 0, 0, 0, 0, 0, 0, 0, 1.8445e+13, 0.102727, -0.131755, -0.309352, 0.998979, -0.00896903, -0.0171683, -0.0408159, -0.000591724, 0.000648147, 0.00246701, -0.00108235, -0.000206651, -0.000187571, -0.0165292, -0.0350408, -0.0813801, 0, 0, 0, 0, 0, 0, 0, 0, 0, 0, 0, 0, 0, 0, 0, 0, 0, 0, 0, 0, 0, 0, 0, 0, 0, 0, 0, 0, 0, 0, 0, 0, 0, 0, 0, 0, 0, 0, 0, 0, 0, 0, 0, 0, 0, 0, 0, 0, 0, 0, 0, 0, 0, 0, 0, 0, 0, 0, 0, 0, 0, 0, 0, 0, 0, 0, 0, 0, 0, 0, 0, 
[2024-06-13 11:56:33.672615] [0x0000007f887dd010] [LogDataTag] [0x00000af8] [224] 1718294193138008, 0.534134, 0, 0, 0, 0, 0, 0, 0, 0, 0, 0, 0, 0, 1.8445e+13, 0.102728, -0.131759, -0.309377, 0.998979, -0.00897099, -0.0171702, -0.0408181, -0.000605051, 0.000679897, 0.00239145, -0.000479164, -8.14538e-05, 8.41421e-05, -0.0165329, -0.0350448, -0.0813845, 0, 0, 0, 0, 0, 0, 0, 0, 0, 0, 0, 0, 0, 0, 0, 0, 0, 0, 0, 0, 0, 0, 0, 0, 0, 0, 0, 0, 0, 0, 0, 0, 0, 0, 0, 0, 0, 0, 0, 0, 0, 0, 0, 0, 0, 0, 0, 0, 0, 0, 0, 0, 0, 0, 0, 0, 0, 0, 0, 0, 0, 0, 0, 0, 0, 0, 0, 0, 0, 0, 0, 
[2024-06-13 11:56:33.682618] [0x0000007f820829a0] [LogDataTag] [0x00000af8] [228] 1718294193138008, 0.544115, 0, 0, 0, 0, 0, 0, 0, 0, 0, 0, 0, 0, 1.8445e+13, 0.102729, -0.131762, -0.3094, 0.998979, -0.00897185, -0.0171716, -0.0408174, -0.00057257, 0.000610891, 0.00234792, 0.000184888, -0.000593634, 0.000469672, -0.0165345, -0.0350477, -0.081383, 0, 0, 0, 0, 0, 0, 0, 0, 0, 0, 0, 0, 0, 0, 0, 0, 0, 0, 0, 0, 0, 0, 0, 0, 0, 0, 0, 0, 0, 0, 0, 0, 0, 0, 0, 0, 0, 0, 0, 0, 0, 0, 0, 0, 0, 0, 0, 0, 0, 0, 0, 0, 0, 0, 0, 0, 0, 0, 0, 0, 0, 0, 0, 0, 0, 0, 0, 0, 0, 0, 0, 
[2024-06-13 11:56:33.692604] [0x0000007f818819a0] [LogDataTag] [0x00000af8] [232] 1718294193138008, 0.55413, 0, 0, 0, 0, 0, 0, 0, 0, 0, 0, 0, 0, 1.8445e+13, 0.102731, -0.131767, -0.309425, 0.998979, -0.00897252, -0.0171714, -0.0408174, -0.000575478, 0.000601504, 0.00221925, -0.000397689, -5.13587e-05, 9.12288e-05, -0.0165358, -0.0350474, -0.0813831, 0, 0, 0, 0, 0, 0, 0, 0, 0, 0, 0, 0, 0, 0, 0, 0, 0, 0, 0, 0, 0, 0, 0, 0, 0, 0, 0, 0, 0, 0, 0, 0, 0, 0, 0, 0, 0, 0, 0, 0, 0, 0, 0, 0, 0, 0, 0, 0, 0, 0, 0, 0, 0, 0, 0, 0, 0, 0, 0, 0, 0, 0, 0, 0, 0, 0, 0, 0, 0, 0, 0, 
[2024-06-13 11:56:33.702587] [0x0000007f810809a0] [LogDataTag] [0x00000af8] [237] 1718294193138008, 0.564126, 0, 0, 0, 0, 0, 0, 0, 0, 0, 0, 0, 0, 1.8445e+13, 0.102732, -0.131771, -0.309449, 0.998979, -0.00897123, -0.017166, -0.0408188, -0.000602412, 0.000640956, 0.00216196, 0.000268765, 0.00121147, 0.000975992, -0.0165336, -0.0350366, -0.0813859, 0, 0, 0, 0, 0, 0, 0, 0, 0, 0, 0, 0, 0, 0, 0, 0, 0, 0, 0, 0, 0, 0, 0, 0, 0, 0, 0, 0, 0, 0, 0, 0, 0, 0, 0, 0, 0, 0, 0, 0, 0, 0, 0, 0, 0, 0, 0, 0, 0, 0, 0, 0, 0, 0, 0, 0, 0, 0, 0, 0, 0, 0, 0, 0, 0, 0, 0, 0, 0, 0, 0, 
[2024-06-13 11:56:33.712602] [0x0000007f887dd010] [LogDataTag] [0x00000af8] [242] 1718294193138008, 0.574132, 0, 0, 0, 0, 0, 0, 0, 0, 0, 0, 0, 0, 1.8445e+13, 0.102734, -0.131776, -0.309474, 0.998979, -0.00897042, -0.0171678, -0.0408172, -0.00063208, 0.000646892, 0.00206618, 0.000146566, -0.000363975, -0.000221656, -0.0165319, -0.03504, -0.0813827, 0, 0, 0, 0, 0, 0, 0, 0, 0, 0, 0, 0, 0, 0, 0, 0, 0, 0, 0, 0, 0, 0, 0, 0, 0, 0, 0, 0, 0, 0, 0, 0, 0, 0, 0, 0, 0, 0, 0, 0, 0, 0, 0, 0, 0, 0, 0, 0, 0, 0, 0, 0, 0, 0, 0, 0, 0, 0, 0, 0, 0, 0, 0, 0, 0, 0, 0, 0, 0, 0, 0, 
[2024-06-13 11:56:33.722556] [0x0000007f820829a0] [LogDataTag] [0x00000af8] [247] 1718294193138008, 0.584129, 0, 0, 0, 0, 0, 0, 0, 0, 0, 0, 0, 0, 1.8445e+13, 0.102735, -0.13178, -0.309499, 0.998979, -0.00897261, -0.0171692, -0.0408159, -0.000622834, 0.000647417, 0.00198997, -3.72563e-06, -5.30062e-05, 0.000937626, -0.0165362, -0.035043, -0.08138, 0, 0, 0, 0, 0, 0, 0, 0, 0, 0, 0, 0, 0, 0, 0, 0, 0, 0, 0, 0, 0, 0, 0, 0, 0, 0, 0, 0, 0, 0, 0, 0, 0, 0, 0, 0, 0, 0, 0, 0, 0, 0, 0, 0, 0, 0, 0, 0, 0, 0, 0, 0, 0, 0, 0, 0, 0, 0, 0, 0, 0, 0, 0, 0, 0, 0, 0, 0, 0, 0, 0, 
[2024-06-13 11:56:33.732651] [0x0000007f818819a0] [LogDataTag] [0x00000af8] [251] 1718294193138008, 0.594127, 0, 0, 0, 0, 0, 0, 0, 0, 0, 0, 0, 0, 1.8445e+13, 0.102737, -0.131784, -0.309525, 0.998979, -0.00897295, -0.0171698, -0.0408182, -0.000583391, 0.000639071, 0.00197177, 0.000125869, -0.000184209, 0.0001527, -0.0165368, -0.0350443, -0.0813847, 0, 0, 0, 0, 0, 0, 0, 0, 0, 0, 0, 0, 0, 0, 0, 0, 0, 0, 0, 0, 0, 0, 0, 0, 0, 0, 0, 0, 0, 0, 0, 0, 0, 0, 0, 0, 0, 0, 0, 0, 0, 0, 0, 0, 0, 0, 0, 0, 0, 0, 0, 0, 0, 0, 0, 0, 0, 0, 0, 0, 0, 0, 0, 0, 0, 0, 0, 0, 0, 0, 0, 
[2024-06-13 11:56:33.742589] [0x0000007f810809a0] [LogDataTag] [0x00000af8] [256] 1718294193138008, 0.604156, 0, 0, 0, 0, 0, 0, 0, 0, 0, 0, 0, 0, 1.8445e+13, 0.102739, -0.13179, -0.309552, 0.998979, -0.00897506, -0.0171696, -0.0408222, -0.00060596, 0.000599912, 0.0018167, 0.000211631, 4.39847e-05, -0.000101635, -0.0165409, -0.0350441, -0.0813926, 0, 0, 0, 0, 0, 0, 0, 0, 0, 0, 0, 0, 0, 0, 0, 0, 0, 0, 0, 0, 0, 0, 0, 0, 0, 0, 0, 0, 0, 0, 0, 0, 0, 0, 0, 0, 0, 0, 0, 0, 0, 0, 0, 0, 0, 0, 0, 0, 0, 0, 0, 0, 0, 0, 0, 0, 0, 0, 0, 0, 0, 0, 0, 0, 0, 0, 0, 0, 0, 0, 0, 
[2024-06-13 11:56:33.752597] [0x0000007f887dd010] [LogDataTag] [0x00000af8] [260] 1718294193138008, 0.614115, 0, 0, 0, 0, 0, 0, 0, 0, 0, 0, 0, 0, 1.8445e+13, 0.10274, -0.131795, -0.309578, 0.998979, -0.00897335, -0.017167, -0.0408257, -0.00062192, 0.000589054, 0.00176254, 0.000222053, 0.000778684, -0.000557321, -0.0165376, -0.0350388, -0.0813996, 0, 0, 0, 0, 0, 0, 0, 0, 0, 0, 0, 0, 0, 0, 0, 0, 0, 0, 0, 0, 0, 0, 0, 0, 0, 0, 0, 0, 0, 0, 0, 0, 0, 0, 0, 0, 0, 0, 0, 0, 0, 0, 0, 0, 0, 0, 0, 0, 0, 0, 0, 0, 0, 0, 0, 0, 0, 0, 0, 0, 0, 0, 0, 0, 0, 0, 0, 0, 0, 0, 0, 
[2024-06-13 11:56:33.762562] [0x0000007f820829a0] [LogDataTag] [0x00000af8] [265] 1718294193138008, 0.624115, 0, 0, 0, 0, 0, 0, 0, 0, 0, 0, 0, 0, 1.8445e+13, 0.102742, -0.131801, -0.309605, 0.998978, -0.00896922, -0.0171664, -0.040831, -0.000669298, 0.000529256, 0.00171969, 0.000558878, 0.000470389, -0.000783922, -0.0165292, -0.0350374, -0.0814104, 0, 0, 0, 0, 0, 0, 0, 0, 0, 0, 0, 0, 0, 0, 0, 0, 0, 0, 0, 0, 0, 0, 0, 0, 0, 0, 0, 0, 0, 0, 0, 0, 0, 0, 0, 0, 0, 0, 0, 0, 0, 0, 0, 0, 0, 0, 0, 0, 0, 0, 0, 0, 0, 0, 0, 0, 0, 0, 0, 0, 0, 0, 0, 0, 0, 0, 0, 0, 0, 0, 0, 
[2024-06-13 11:56:33.772579] [0x0000007f820829a0] [LogDataTag] [0x00000af8] [269] 1718294193138008, 0.634119, 0, 0, 0, 0, 0, 0, 0, 0, 0, 0, 0, 0, 1.8445e+13, 0.102743, -0.131808, -0.309631, 0.998978, -0.00897011, -0.0171625, -0.0408358, -0.000629537, 0.00044884, 0.0016313, -0.000374541, 0.000435897, -0.00037629, -0.0165311, -0.0350297, -0.08142, 0, 0, 0, 0, 0, 0, 0, 0, 0, 0, 0, 0, 0, 0, 0, 0, 0, 0, 0, 0, 0, 0, 0, 0, 0, 0, 0, 0, 0, 0, 0, 0, 0, 0, 0, 0, 0, 0, 0, 0, 0, 0, 0, 0, 0, 0, 0, 0, 0, 0, 0, 0, 0, 0, 0, 0, 0, 0, 0, 0, 0, 0, 0, 0, 0, 0, 0, 0, 0, 0, 0, 
[2024-06-13 11:56:33.782812] [0x0000007f818819a0] [LogDataTag] [0x00000af8] [274] 1718294193138008, 0.644166, 0, 0, 0, 0, 0, 0, 0, 0, 0, 0, 0, 0, 1.8445e+13, 0.102744, -0.131816, -0.309658, 0.998978, -0.00896996, -0.0171622, -0.0408396, -0.000619405, 0.000350584, 0.00154639, 3.07664e-06, -0.0002239, -0.00124716, -0.0165307, -0.0350292, -0.0814277, 0, 0, 0, 0, 0, 0, 0, 0, 0, 0, 0, 0, 0, 0, 0, 0, 0, 0, 0, 0, 0, 0, 0, 0, 0, 0, 0, 0, 0, 0, 0, 0, 0, 0, 0, 0, 0, 0, 0, 0, 0, 0, 0, 0, 0, 0, 0, 0, 0, 0, 0, 0, 0, 0, 0, 0, 0, 0, 0, 0, 0, 0, 0, 0, 0, 0, 0, 0, 0, 0, 0, 
[2024-06-13 11:56:33.792537] [0x0000007f887dd010] [LogDataTag] [0x00000af8] [279] 1718294193138008, 0.654117, 0, 0, 0, 0, 0, 0, 0, 0, 0, 0, 0, 0, 1.8445e+13, 0.102746, -0.131824, -0.309683, 0.998978, -0.00897117, -0.017163, -0.0408424, -0.000622427, 0.000315221, 0.00154744, 0.00044184, 7.84403e-05, 5.16151e-05, -0.0165329, -0.0350309, -0.0814332, 0, 0, 0, 0, 0, 0, 0, 0, 0, 0, 0, 0, 0, 0, 0, 0, 0, 0, 0, 0, 0, 0, 0, 0, 0, 0, 0, 0, 0, 0, 0, 0, 0, 0, 0, 0, 0, 0, 0, 0, 0, 0, 0, 0, 0, 0, 0, 0, 0, 0, 0, 0, 0, 0, 0, 0, 0, 0, 0, 0, 0, 0, 0, 0, 0, 0, 0, 0, 0, 0, 0, 
[2024-06-13 11:56:33.802572] [0x0000007f810809a0] [LogDataTag] [0x00000af8] [283] 1718294193138008, 0.664122, 0, 0, 0, 0, 0, 0, 0, 0, 0, 0, 0, 0, 1.8445e+13, 0.102747, -0.131833, -0.309709, 0.998978, -0.00897264, -0.0171645, -0.0408433, -0.000601267, 0.00027927, 0.0014548, -0.000261023, -1.65305e-05, -9.05109e-06, -0.0165357, -0.0350341, -0.081435, 0, 0, 0, 0, 0, 0, 0, 0, 0, 0, 0, 0, 0, 0, 0, 0, 0, 0, 0, 0, 0, 0, 0, 0, 0, 0, 0, 0, 0, 0, 0, 0, 0, 0, 0, 0, 0, 0, 0, 0, 0, 0, 0, 0, 0, 0, 0, 0, 0, 0, 0, 0, 0, 0, 0, 0, 0, 0, 0, 0, 0, 0, 0, 0, 0, 0, 0, 0, 0, 0, 0, 
[2024-06-13 11:56:33.812626] [0x0000007f820829a0] [LogDataTag] [0x00000af8] [288] 1718294193138008, 0.674193, 0, 0, 0, 0, 0, 0, 0, 0, 0, 0, 0, 0, 1.8445e+13, 0.102749, -0.131842, -0.309734, 0.998978, -0.00897188, -0.017167, -0.0408453, -0.000538234, 0.000199008, 0.00145078, -5.8711e-06, -0.000228276, 0.000271482, -0.0165339, -0.0350391, -0.0814389, 0, 0, 0, 0, 0, 0, 0, 0, 0, 0, 0, 0, 0, 0, 0, 0, 0, 0, 0, 0, 0, 0, 0, 0, 0, 0, 0, 0, 0, 0, 0, 0, 0, 0, 0, 0, 0, 0, 0, 0, 0, 0, 0, 0, 0, 0, 0, 0, 0, 0, 0, 0, 0, 0, 0, 0, 0, 0, 0, 0, 0, 0, 0, 0, 0, 0, 0, 0, 0, 0, 0, 
[2024-06-13 11:56:33.822552] [0x0000007f818819a0] [LogDataTag] [0x00000af8] [292] 1718294193138008, 0.684118, 0, 0, 0, 0, 0, 0, 0, 0, 0, 0, 0, 0, 1.8445e+13, 0.102751, -0.131852, -0.309757, 0.998978, -0.00896995, -0.017168, -0.0408503, -0.000494423, 0.000210156, 0.00141996, 0.000777536, -0.000162031, -0.000627454, -0.0165298, -0.0350409, -0.081449, 0, 0, 0, 0, 0, 0, 0, 0, 0, 0, 0, 0, 0, 0, 0, 0, 0, 0, 0, 0, 0, 0, 0, 0, 0, 0, 0, 0, 0, 0, 0, 0, 0, 0, 0, 0, 0, 0, 0, 0, 0, 0, 0, 0, 0, 0, 0, 0, 0, 0, 0, 0, 0, 0, 0, 0, 0, 0, 0, 0, 0, 0, 0, 0, 0, 0, 0, 0, 0, 0, 0, 
[2024-06-13 11:56:33.832874] [0x0000007f887dd010] [LogDataTag] [0x00000af8] [297] 1718294193138008, 0.694459, 0, 0, 0, 0, 0, 0, 0, 0, 0, 0, 0, 0, 1.8445e+13, 0.102754, -0.131861, -0.309781, 0.998977, -0.00896915, -0.0171673, -0.0408524, -0.000467123, 0.0001946, 0.00135235, 0.000551539, -0.000294404, -0.000614194, -0.0165282, -0.0350395, -0.0814533, 0, 0, 0, 0, 0, 0, 0, 0, 0, 0, 0, 0, 0, 0, 0, 0, 0, 0, 0, 0, 0, 0, 0, 0, 0, 0, 0, 0, 0, 0, 0, 0, 0, 0, 0, 0, 0, 0, 0, 0, 0, 0, 0, 0, 0, 0, 0, 0, 0, 0, 0, 0, 0, 0, 0, 0, 0, 0, 0, 0, 0, 0, 0, 0, 0, 0, 0, 0, 0, 0, 0, 
[2024-06-13 11:56:33.842597] [0x0000007f810809a0] [LogDataTag] [0x00000af8] [301] 1718294193138008, 0.704123, 0, 0, 0, 0, 0, 0, 0, 0, 0, 0, 0, 0, 1.8445e+13, 0.102757, -0.131871, -0.309804, 0.998977, -0.00897117, -0.0171649, -0.0408553, -0.000382218, 0.000160047, 0.00132435, 0.00020492, 0.000897685, -0.00073831, -0.0165323, -0.0350349, -0.0814591, 0, 0, 0, 0, 0, 0, 0, 0, 0, 0, 0, 0, 0, 0, 0, 0, 0, 0, 0, 0, 0, 0, 0, 0, 0, 0, 0, 0, 0, 0, 0, 0, 0, 0, 0, 0, 0, 0, 0, 0, 0, 0, 0, 0, 0, 0, 0, 0, 0, 0, 0, 0, 0, 0, 0, 0, 0, 0, 0, 0, 0, 0, 0, 0, 0, 0, 0, 0, 0, 0, 0, 
[2024-06-13 11:56:33.852789] [0x0000007f820829a0] [LogDataTag] [0x00000af8] [306] 1718294193138008, 0.714224, 0, 0, 0, 0, 0, 0, 0, 0, 0, 0, 0, 0, 1.8445e+13, 0.102761, -0.131881, -0.309827, 0.998977, -0.00896826, -0.0171668, -0.0408611, -0.000295746, 0.000105531, 0.0013222, 0.00114708, -1.44463e-05, -0.000914267, -0.0165262, -0.0350386, -0.0814707, 0, 0, 0, 0, 0, 0, 0, 0, 0, 0, 0, 0, 0, 0, 0, 0, 0, 0, 0, 0, 0, 0, 0, 0, 0, 0, 0, 0, 0, 0, 0, 0, 0, 0, 0, 0, 0, 0, 0, 0, 0, 0, 0, 0, 0, 0, 0, 0, 0, 0, 0, 0, 0, 0, 0, 0, 0, 0, 0, 0, 0, 0, 0, 0, 0, 0, 0, 0, 0, 0, 0, 
[2024-06-13 11:56:33.862540] [0x0000007f818819a0] [LogDataTag] [0x00000af8] [311] 1718294193138008, 0.724086, 0, 0, 0, 0, 0, 0, 0, 0, 0, 0, 0, 0, 1.8445e+13, 0.102765, -0.131891, -0.309847, 0.998977, -0.00896919, -0.0171638, -0.0408607, -0.000299949, 0.000102493, 0.00132666, -0.000226542, 0.000315046, 0.000467443, -0.0165283, -0.0350326, -0.08147, 0, 0, 0, 0, 0, 0, 0, 0, 0, 0, 0, 0, 0, 0, 0, 0, 0, 0, 0, 0, 0, 0, 0, 0, 0, 0, 0, 0, 0, 0, 0, 0, 0, 0, 0, 0, 0, 0, 0, 0, 0, 0, 0, 0, 0, 0, 0, 0, 0, 0, 0, 0, 0, 0, 0, 0, 0, 0, 0, 0, 0, 0, 0, 0, 0, 0, 0, 0, 0, 0, 0, 
[2024-06-13 11:56:33.872616] [0x0000007f887dd010] [LogDataTag] [0x00000af8] [315] 1718294193138008, 0.734123, 0, 0, 0, 0, 0, 0, 0, 0, 0, 0, 0, 0, 1.8445e+13, 0.102769, -0.131901, -0.309868, 0.998977, -0.00897149, -0.0171667, -0.0408653, -0.000219104, 5.06155e-06, 0.00124868, -0.0005776, -0.000128416, -0.000302926, -0.0165325, -0.0350387, -0.0814791, 0, 0, 0, 0, 0, 0, 0, 0, 0, 0, 0, 0, 0, 0, 0, 0, 0, 0, 0, 0, 0, 0, 0, 0, 0, 0, 0, 0, 0, 0, 0, 0, 0, 0, 0, 0, 0, 0, 0, 0, 0, 0, 0, 0, 0, 0, 0, 0, 0, 0, 0, 0, 0, 0, 0, 0, 0, 0, 0, 0, 0, 0, 0, 0, 0, 0, 0, 0, 0, 0, 0, 
[2024-06-13 11:56:33.882583] [0x0000007f810809a0] [LogDataTag] [0x00000af8] [319] 1718294193138008, 0.744124, 0, 0, 0, 0, 0, 0, 0, 0, 0, 0, 0, 0, 1.8445e+13, 0.102774, -0.131911, -0.309888, 0.998977, -0.00897195, -0.0171665, -0.0408701, -0.000169373, -4.73845e-05, 0.00123499, -0.000546939, 0.00061537, -0.000441139, -0.0165333, -0.0350384, -0.0814887, 0, 0, 0, 0, 0, 0, 0, 0, 0, 0, 0, 0, 0, 0, 0, 0, 0, 0, 0, 0, 0, 0, 0, 0, 0, 0, 0, 0, 0, 0, 0, 0, 0, 0, 0, 0, 0, 0, 0, 0, 0, 0, 0, 0, 0, 0, 0, 0, 0, 0, 0, 0, 0, 0, 0, 0, 0, 0, 0, 0, 0, 0, 0, 0, 0, 0, 0, 0, 0, 0, 0, 
[2024-06-13 11:56:33.892650] [0x0000007f820829a0] [LogDataTag] [0x00000af8] [324] 1718294193138008, 0.754109, 0, 0, 0, 0, 0, 0, 0, 0, 0, 0, 0, 0, 1.8445e+13, 0.10278, -0.131922, -0.309906, 0.998977, -0.00897091, -0.0171653, -0.040875, -0.0001414, -5.87255e-05, 0.0011804, 0.000272721, 4.37447e-05, -0.00112236, -0.0165311, -0.035036, -0.0814984, 0, 0, 0, 0, 0, 0, 0, 0, 0, 0, 0, 0, 0, 0, 0, 0, 0, 0, 0, 0, 0, 0, 0, 0, 0, 0, 0, 0, 0, 0, 0, 0, 0, 0, 0, 0, 0, 0, 0, 0, 0, 0, 0, 0, 0, 0, 0, 0, 0, 0, 0, 0, 0, 0, 0, 0, 0, 0, 0, 0, 0, 0, 0, 0, 0, 0, 0, 0, 0, 0, 0, 
[2024-06-13 11:56:33.902661] [0x0000007f818819a0] [LogDataTag] [0x00000af8] [328] 1718294193138008, 0.764115, 0, 0, 0, 0, 0, 0, 0, 0, 0, 0, 0, 0, 1.8445e+13, 0.102785, -0.131932, -0.309924, 0.998977, -0.008975, -0.0171654, -0.0408739, -0.000121279, -4.37186e-05, 0.00114701, -0.000654183, -0.000378417, 0.000822976, -0.0165393, -0.0350366, -0.0814962, 0, 0, 0, 0, 0, 0, 0, 0, 0, 0, 0, 0, 0, 0, 0, 0, 0, 0, 0, 0, 0, 0, 0, 0, 0, 0, 0, 0, 0, 0, 0, 0, 0, 0, 0, 0, 0, 0, 0, 0, 0, 0, 0, 0, 0, 0, 0, 0, 0, 0, 0, 0, 0, 0, 0, 0, 0, 0, 0, 0, 0, 0, 0, 0, 0, 0, 0, 0, 0, 0, 0, 
[2024-06-13 11:56:33.912775] [0x0000007f887dd010] [LogDataTag] [0x00000af8] [333] 1718294193138008, 0.774347, 0, 0, 0, 0, 0, 0, 0, 0, 0, 0, 0, 0, 1.8445e+13, 0.10279, -0.131942, -0.309941, 0.998976, -0.0089794, -0.0171674, -0.0408764, -0.000106326, -4.72343e-05, 0.00112195, -0.000904586, -0.000126955, 0.000899843, -0.0165478, -0.035041, -0.0815009, 0, 0, 0, 0, 0, 0, 0, 0, 0, 0, 0, 0, 0, 0, 0, 0, 0, 0, 0, 0, 0, 0, 0, 0, 0, 0, 0, 0, 0, 0, 0, 0, 0, 0, 0, 0, 0, 0, 0, 0, 0, 0, 0, 0, 0, 0, 0, 0, 0, 0, 0, 0, 0, 0, 0, 0, 0, 0, 0, 0, 0, 0, 0, 0, 0, 0, 0, 0, 0, 0, 0, 
[2024-06-13 11:56:33.922592] [0x0000007f887dd010] [LogDataTag] [0x00000af8] [337] 1718294193138008, 0.784127, 0, 0, 0, 0, 0, 0, 0, 0, 0, 0, 0, 0, 1.8445e+13, 0.102795, -0.131952, -0.309957, 0.998976, -0.00898262, -0.0171716, -0.0408775, -0.000104317, -9.86872e-05, 0.00102386, -0.000409662, -0.000566777, -0.000371776, -0.0165539, -0.0350496, -0.0815029, 0, 0, 0, 0, 0, 0, 0, 0, 0, 0, 0, 0, 0, 0, 0, 0, 0, 0, 0, 0, 0, 0, 0, 0, 0, 0, 0, 0, 0, 0, 0, 0, 0, 0, 0, 0, 0, 0, 0, 0, 0, 0, 0, 0, 0, 0, 0, 0, 0, 0, 0, 0, 0, 0, 0, 0, 0, 0, 0, 0, 0, 0, 0, 0, 0, 0, 0, 0, 0, 0, 0, 
[2024-06-13 11:56:33.932671] [0x0000007f820829a0] [LogDataTag] [0x00000af8] [341] 1718294193138008, 0.794219, 0, 0, 0, 0, 0, 0, 0, 0, 0, 0, 0, 0, 1.8445e+13, 0.1028, -0.131962, -0.309973, 0.998976, -0.00898386, -0.0171698, -0.0408805, -9.15846e-05, -0.000129566, 0.00103014, -4.37469e-05, 0.000658041, -0.00020244, -0.0165564, -0.0350461, -0.0815091, 0, 0, 0, 0, 0, 0, 0, 0, 0, 0, 0, 0, 0, 0, 0, 0, 0, 0, 0, 0, 0, 0, 0, 0, 0, 0, 0, 0, 0, 0, 0, 0, 0, 0, 0, 0, 0, 0, 0, 0, 0, 0, 0, 0, 0, 0, 0, 0, 0, 0, 0, 0, 0, 0, 0, 0, 0, 0, 0, 0, 0, 0, 0, 0, 0, 0, 0, 0, 0, 0, 0, 
[2024-06-13 11:56:33.942562] [0x0000007f810809a0] [LogDataTag] [0x00000af8] [346] 1718294193138008, 0.804104, 0, 0, 0, 0, 0, 0, 0, 0, 0, 0, 0, 0, 1.8445e+13, 0.102805, -0.131972, -0.309987, 0.998976, -0.00898397, -0.0171702, -0.040882, -0.000110459, -0.000133896, 0.000999363, 0.000533143, -0.00025594, 0.000639467, -0.0165566, -0.035047, -0.081512, 0, 0, 0, 0, 0, 0, 0, 0, 0, 0, 0, 0, 0, 0, 0, 0, 0, 0, 0, 0, 0, 0, 0, 0, 0, 0, 0, 0, 0, 0, 0, 0, 0, 0, 0, 0, 0, 0, 0, 0, 0, 0, 0, 0, 0, 0, 0, 0, 0, 0, 0, 0, 0, 0, 0, 0, 0, 0, 0, 0, 0, 0, 0, 0, 0, 0, 0, 0, 0, 0, 0, 
[2024-06-13 11:56:33.952637] [0x0000007f818819a0] [LogDataTag] [0x00000af8] [350] 1718294193138008, 0.814123, 0, 0, 0, 0, 0, 0, 0, 0, 0, 0, 0, 0, 1.8445e+13, 0.102811, -0.131981, -0.310001, 0.998976, -0.00898606, -0.0171712, -0.0408823, -3.46108e-06, -0.000162143, 0.00095676, 9.22339e-05, 6.02256e-05, 0.000719272, -0.0165606, -0.0350492, -0.0815126, 0, 0, 0, 0, 0, 0, 0, 0, 0, 0, 0, 0, 0, 0, 0, 0, 0, 0, 0, 0, 0, 0, 0, 0, 0, 0, 0, 0, 0, 0, 0, 0, 0, 0, 0, 0, 0, 0, 0, 0, 0, 0, 0, 0, 0, 0, 0, 0, 0, 0, 0, 0, 0, 0, 0, 0, 0, 0, 0, 0, 0, 0, 0, 0, 0, 0, 0, 0, 0, 0, 0, 
[2024-06-13 11:56:33.962632] [0x0000007f887dd010] [LogDataTag] [0x00000af8] [354] 1718294193138008, 0.824128, 0, 0, 0, 0, 0, 0, 0, 0, 0, 0, 0, 0, 1.8445e+13, 0.102816, -0.13199, -0.310015, 0.998976, -0.00898771, -0.0171734, -0.0408836, 5.29321e-06, -0.000160351, 0.000965403, -0.000470642, 0.00029807, 0.000372778, -0.0165637, -0.0350537, -0.081515, 0, 0, 0, 0, 0, 0, 0, 0, 0, 0, 0, 0, 0, 0, 0, 0, 0, 0, 0, 0, 0, 0, 0, 0, 0, 0, 0, 0, 0, 0, 0, 0, 0, 0, 0, 0, 0, 0, 0, 0, 0, 0, 0, 0, 0, 0, 0, 0, 0, 0, 0, 0, 0, 0, 0, 0, 0, 0, 0, 0, 0, 0, 0, 0, 0, 0, 0, 0, 0, 0, 0, 
[2024-06-13 11:56:33.972620] [0x0000007f820829a0] [LogDataTag] [0x00000af8] [359] 1718294193138008, 0.834124, 0, 0, 0, 0, 0, 0, 0, 0, 0, 0, 0, 0, 1.8445e+13, 0.102823, -0.131999, -0.310028, 0.998976, -0.00898664, -0.0171748, -0.0408871, 1.96482e-05, -0.000125868, 0.000908087, 0.000609713, 0.000169903, -0.000827794, -0.0165613, -0.0350564, -0.081522, 0, 0, 0, 0, 0, 0, 0, 0, 0, 0, 0, 0, 0, 0, 0, 0, 0, 0, 0, 0, 0, 0, 0, 0, 0, 0, 0, 0, 0, 0, 0, 0, 0, 0, 0, 0, 0, 0, 0, 0, 0, 0, 0, 0, 0, 0, 0, 0, 0, 0, 0, 0, 0, 0, 0, 0, 0, 0, 0, 0, 0, 0, 0, 0, 0, 0, 0, 0, 0, 0, 0, 
[2024-06-13 11:56:33.982644] [0x0000007f810809a0] [LogDataTag] [0x00000af8] [364] 1718294193138008, 0.84412, 0, 0, 0, 0, 0, 0, 0, 0, 0, 0, 0, 0, 1.8445e+13, 0.102829, -0.132007, -0.310039, 0.998975, -0.00898707, -0.0171781, -0.0408912, 4.66537e-05, -7.99614e-05, 0.000897592, -0.000266372, -0.00030401, -0.000449726, -0.0165618, -0.0350632, -0.0815302, 0, 0, 0, 0, 0, 0, 0, 0, 0, 0, 0, 0, 0, 0, 0, 0, 0, 0, 0, 0, 0, 0, 0, 0, 0, 0, 0, 0, 0, 0, 0, 0, 0, 0, 0, 0, 0, 0, 0, 0, 0, 0, 0, 0, 0, 0, 0, 0, 0, 0, 0, 0, 0, 0, 0, 0, 0, 0, 0, 0, 0, 0, 0, 0, 0, 0, 0, 0, 0, 0, 0, 
[2024-06-13 11:56:33.992472] [0x0000007f810809a0] [LogDataTag] [0x00000af8] [369] 1718294193138008, 0.854018, 0, 0, 0, 0, 0, 0, 0, 0, 0, 0, 0, 0, 1.8445e+13, 0.102835, -0.132015, -0.31005, 0.998975, -0.00898566, -0.017179, -0.0408949, 7.20937e-05, -8.0295e-05, 0.000829249, 0.000534257, -0.00052871, -0.000706946, -0.0165588, -0.0350649, -0.0815376, 0, 0, 0, 0, 0, 0, 0, 0, 0, 0, 0, 0, 0, 0, 0, 0, 0, 0, 0, 0, 0, 0, 0, 0, 0, 0, 0, 0, 0, 0, 0, 0, 0, 0, 0, 0, 0, 0, 0, 0, 0, 0, 0, 0, 0, 0, 0, 0, 0, 0, 0, 0, 0, 0, 0, 0, 0, 0, 0, 0, 0, 0, 0, 0, 0, 0, 0, 0, 0, 0, 0, 
[2024-06-13 11:56:34.002615] [0x0000007f820829a0] [LogDataTag] [0x00000af8] [373] 1718294193138008, 0.864119, 0, 0, 0, 0, 0, 0, 0, 0, 0, 0, 0, 0, 1.8445e+13, 0.102841, -0.132022, -0.310062, 0.998975, -0.00898842, -0.0171784, -0.0408966, 8.47873e-06, -9.44504e-05, 0.000839548, -0.0003022, 0.000258833, 0.0002958, -0.0165643, -0.0350639, -0.081541, 0, 0, 0, 0, 0, 0, 0, 0, 0, 0, 0, 0, 0, 0, 0, 0, 0, 0, 0, 0, 0, 0, 0, 0, 0, 0, 0, 0, 0, 0, 0, 0, 0, 0, 0, 0, 0, 0, 0, 0, 0, 0, 0, 0, 0, 0, 0, 0, 0, 0, 0, 0, 0, 0, 0, 0, 0, 0, 0, 0, 0, 0, 0, 0, 0, 0, 0, 0, 0, 0, 0, 
[2024-06-13 11:56:34.012586] [0x0000007f887dd010] [LogDataTag] [0x00000af8] [378] 1718294193138008, 0.87412, 0, 0, 0, 0, 0, 0, 0, 0, 0, 0, 0, 0, 1.8445e+13, 0.102846, -0.132029, -0.310071, 0.998975, -0.00899069, -0.0171802, -0.0408995, -2.51687e-06, -0.000135677, 0.000808819, -0.000362088, -0.000194268, 0.000314709, -0.0165686, -0.0350678, -0.0815466, 0, 0, 0, 0, 0, 0, 0, 0, 0, 0, 0, 0, 0, 0, 0, 0, 0, 0, 0, 0, 0, 0, 0, 0, 0, 0, 0, 0, 0, 0, 0, 0, 0, 0, 0, 0, 0, 0, 0, 0, 0, 0, 0, 0, 0, 0, 0, 0, 0, 0, 0, 0, 0, 0, 0, 0, 0, 0, 0, 0, 0, 0, 0, 0, 0, 0, 0, 0, 0, 0, 0, 
[2024-06-13 11:56:34.022653] [0x0000007f818819a0] [LogDataTag] [0x00000af8] [383] 1718294193138008, 0.884174, 0, 0, 0, 0, 0, 0, 0, 0, 0, 0, 0, 0, 1.8445e+13, 0.102852, -0.132036, -0.310081, 0.998975, -0.00899006, -0.0171805, -0.0409015, -1.98823e-06, -0.000141959, 0.000752834, -4.22772e-06, 0.000288724, 4.36393e-05, -0.0165672, -0.0350684, -0.0815507, 0, 0, 0, 0, 0, 0, 0, 0, 0, 0, 0, 0, 0, 0, 0, 0, 0, 0, 0, 0, 0, 0, 0, 0, 0, 0, 0, 0, 0, 0, 0, 0, 0, 0, 0, 0, 0, 0, 0, 0, 0, 0, 0, 0, 0, 0, 0, 0, 0, 0, 0, 0, 0, 0, 0, 0, 0, 0, 0, 0, 0, 0, 0, 0, 0, 0, 0, 0, 0, 0, 0, 
[2024-06-13 11:56:34.032627] [0x0000007f810809a0] [LogDataTag] [0x00000af8] [388] 1718294193138008, 0.894128, 0, 0, 0, 0, 0, 0, 0, 0, 0, 0, 0, 0, 1.8445e+13, 0.102857, -0.132043, -0.310091, 0.998975, -0.00899181, -0.0171812, -0.0409007, 4.80153e-05, -0.000202572, 0.000665324, -0.000807533, -0.00047137, 0.000467815, -0.0165707, -0.03507, -0.0815491, 0, 0, 0, 0, 0, 0, 0, 0, 0, 0, 0, 0, 0, 0, 0, 0, 0, 0, 0, 0, 0, 0, 0, 0, 0, 0, 0, 0, 0, 0, 0, 0, 0, 0, 0, 0, 0, 0, 0, 0, 0, 0, 0, 0, 0, 0, 0, 0, 0, 0, 0, 0, 0, 0, 0, 0, 0, 0, 0, 0, 0, 0, 0, 0, 0, 0, 0, 0, 0, 0, 0, 
[2024-06-13 11:56:34.042643] [0x0000007f818819a0] [LogDataTag] [0x00000af8] [392] 1718294193138008, 0.90416, 0, 0, 0, 0, 0, 0, 0, 0, 0, 0, 0, 0, 1.8445e+13, 0.102863, -0.132051, -0.3101, 0.998975, -0.00899285, -0.0171832, -0.0409064, 7.13226e-05, -0.000206386, 0.000593789, 0.000284957, -0.000469061, -0.000863797, -0.0165724, -0.035074, -0.0815604, 0, 0, 0, 0, 0, 0, 0, 0, 0, 0, 0, 0, 0, 0, 0, 0, 0, 0, 0, 0, 0, 0, 0, 0, 0, 0, 0, 0, 0, 0, 0, 0, 0, 0, 0, 0, 0, 0, 0, 0, 0, 0, 0, 0, 0, 0, 0, 0, 0, 0, 0, 0, 0, 0, 0, 0, 0, 0, 0, 0, 0, 0, 0, 0, 0, 0, 0, 0, 0, 0, 0, 
[2024-06-13 11:56:34.052585] [0x0000007f810809a0] [LogDataTag] [0x00000af8] [397] 1718294193138008, 0.914146, 0, 0, 0, 0, 0, 0, 0, 0, 0, 0, 0, 0, 1.8445e+13, 0.102868, -0.132057, -0.310109, 0.998975, -0.00899608, -0.0171847, -0.040903, 4.1346e-05, -0.000235539, 0.000585715, -0.000218029, -0.000103323, 0.00111748, -0.0165789, -0.0350773, -0.0815534, 0, 0, 0, 0, 0, 0, 0, 0, 0, 0, 0, 0, 0, 0, 0, 0, 0, 0, 0, 0, 0, 0, 0, 0, 0, 0, 0, 0, 0, 0, 0, 0, 0, 0, 0, 0, 0, 0, 0, 0, 0, 0, 0, 0, 0, 0, 0, 0, 0, 0, 0, 0, 0, 0, 0, 0, 0, 0, 0, 0, 0, 0, 0, 0, 0, 0, 0, 0, 0, 0, 0, 
[2024-06-13 11:56:34.062702] [0x0000007f810809a0] [LogDataTag] [0x00000af8] [401] 1718294193138008, 0.924133, 0, 0, 0, 0, 0, 0, 0, 0, 0, 0, 0, 0, 1.8445e+13, 0.102868, -0.132057, -0.310109, 0.998975, -0.00899608, -0.0171847, -0.040903, 4.1346e-05, -0.000235539, 0.000585715, -0.000218029, -0.000103323, 0.00111748, -0.0165789, -0.0350773, -0.0815534, 0, 0, 0, 0, 0, 0, 0, 0, 0, 0, 0, 0, 0, 0, 0, 0, 0, 0, 0, 0, 0, 0, 0, 0, 0, 0, 0, 0, 0, 0, 0, 0, 0, 0, 0, 0, 0, 0, 0, 0, 0, 0, 0, 0, 0, 0, 0, 0, 0, 0, 0, 0, 0, 0, 0, 0, 0, 0, 0, 0, 0, 0, 0, 0, 0, 0, 0, 0, 0, 0, 0, 
[2024-06-13 11:56:34.072643] [0x0000007f820829a0] [LogDataTag] [0x00000af8] [406] 1718294193138008, 0.934165, 0, 0, 0, 0, 0, 0, 0, 0, 0, 0, 0, 0, 1.8445e+13, 0.102878, -0.132069, -0.310127, 0.998974, -0.00899731, -0.0171878, -0.0409112, 4.53707e-05, -0.000163362, 0.000456793, -7.43238e-05, -0.000114333, 2.89189e-05, -0.0165808, -0.0350838, -0.0815697, 0, 0, 0, 0, 0, 0, 0, 0, 0, 0, 0, 0, 0, 0, 0, 0, 0, 0, 0, 0, 0, 0, 0, 0, 0, 0, 0, 0, 0, 0, 0, 0, 0, 0, 0, 0, 0, 0, 0, 0, 0, 0, 0, 0, 0, 0, 0, 0, 0, 0, 0, 0, 0, 0, 0, 0, 0, 0, 0, 0, 0, 0, 0, 0, 0, 0, 0, 0, 0, 0, 0, 
[2024-06-13 11:56:34.082614] [0x0000007f820829a0] [LogDataTag] [0x00000af8] [411] 1718294193138008, 0.944175, 0, 0, 0, 0, 0, 0, 0, 0, 0, 0, 0, 0, 1.8445e+13, 0.102878, -0.132069, -0.310127, 0.998974, -0.00899731, -0.0171878, -0.0409112, 4.53707e-05, -0.000163362, 0.000456793, -7.43238e-05, -0.000114333, 2.89189e-05, -0.0165808, -0.0350838, -0.0815697, 0, 0, 0, 0, 0, 0, 0, 0, 0, 0, 0, 0, 0, 0, 0, 0, 0, 0, 0, 0, 0, 0, 0, 0, 0, 0, 0, 0, 0, 0, 0, 0, 0, 0, 0, 0, 0, 0, 0, 0, 0, 0, 0, 0, 0, 0, 0, 0, 0, 0, 0, 0, 0, 0, 0, 0, 0, 0, 0, 0, 0, 0, 0, 0, 0, 0, 0, 0, 0, 0, 0, 
[2024-06-13 11:56:34.092609] [0x0000007f810809a0] [LogDataTag] [0x00000af8] [415] 1718294193138008, 0.95416, 0, 0, 0, 0, 0, 0, 0, 0, 0, 0, 0, 0, 1.8445e+13, 0.102889, -0.132081, -0.310144, 0.998973, -0.00899522, -0.0171839, -0.0409584, 0.000152228, -0.000815512, 0.000122848, 0.000181785, 0.00022257, -0.00821344, -0.0165753, -0.0350765, -0.0816644, 0, 0, 0, 0, 0, 0, 0, 0, 0, 0, 0, 0, 0, 0, 0, 0, 0, 0, 0, 0, 0, 0, 0, 0, 0, 0, 0, 0, 0, 0, 0, 0, 0, 0, 0, 0, 0, 0, 0, 0, 0, 0, 0, 0, 0, 0, 0, 0, 0, 0, 0, 0, 0, 0, 0, 0, 0, 0, 0, 0, 0, 0, 0, 0, 0, 0, 0, 0, 0, 0, 0, 
[2024-06-13 11:56:34.102657] [0x0000007f810809a0] [LogDataTag] [0x00000af8] [419] 1718294193138008, 0.964158, 0, 0, 0, 0, 0, 0, 0, 0, 0, 0, 0, 0, 1.8445e+13, 0.102889, -0.132081, -0.310144, 0.998973, -0.00899522, -0.0171839, -0.0409584, 0.000152228, -0.000815512, 0.000122848, 0.000181785, 0.00022257, -0.00821344, -0.0165753, -0.0350765, -0.0816644, 0, 0, 0, 0, 0, 0, 0, 0, 0, 0, 0, 0, 0, 0, 0, 0, 0, 0, 0, 0, 0, 0, 0, 0, 0, 0, 0, 0, 0, 0, 0, 0, 0, 0, 0, 0, 0, 0, 0, 0, 0, 0, 0, 0, 0, 0, 0, 0, 0, 0, 0, 0, 0, 0, 0, 0, 0, 0, 0, 0, 0, 0, 0, 0, 0, 0, 0, 0, 0, 0, 0, 
[2024-06-13 11:56:34.112629] [0x0000007f818819a0] [LogDataTag] [0x00000af8] [423] 1718294193138008, 0.974163, 0, 0, 0, 0, 0, 0, 0, 0, 0, 0, 0, 0, 1.8445e+13, 0.102895, -0.132084, -0.310153, 0.998973, -0.00898528, -0.0171843, -0.0409506, 4.658e-05, 0.000505063, 0.000478971, 0.00665689, -0.00100538, 0.0054837, -0.0165556, -0.0350763, -0.0816491, 0, 0, 0, 0, 0, 0, 0, 0, 0, 0, 0, 0, 0, 0, 0, 0, 0, 0, 0, 0, 0, 0, 0, 0, 0, 0, 0, 0, 0, 0, 0, 0, 0, 0, 0, 0, 0, 0, 0, 0, 0, 0, 0, 0, 0, 0, 0, 0, 0, 0, 0, 0, 0, 0, 0, 0, 0, 0, 0, 0, 0, 0, 0, 0, 0, 0, 0, 0, 0, 0, 0, 
[2024-06-13 11:56:34.122596] [0x0000007f810809a0] [LogDataTag] [0x00000af8] [428] 1718294193138008, 0.984137, 0, 0, 0, 0, 0, 0, 0, 0, 0, 0, 0, 0, 1.8445e+13, 0.102905, -0.132067, -0.310167, 0.998979, -0.00899031, -0.0171791, -0.0408056, 8.57733e-05, 0.000254269, 0.000325846, 0.00101656, 0.000873029, 0.00950595, -0.0165712, -0.035064, -0.0813586, 0, 0, 0, 0, 0, 0, 0, 0, 0, 0, 0, 0, 0, 0, 0, 0, 0, 0, 0, 0, 0, 0, 0, 0, 0, 0, 0, 0, 0, 0, 0, 0, 0, 0, 0, 0, 0, 0, 0, 0, 0, 0, 0, 0, 0, 0, 0, 0, 0, 0, 0, 0, 0, 0, 0, 0, 0, 0, 0, 0, 0, 0, 0, 0, 0, 0, 0, 0, 0, 0, 0, 
[2024-06-13 11:56:34.132654] [0x0000007f810809a0] [LogDataTag] [0x00000af8] [432] 1718294193138008, 0.994179, 0, 0, 0, 0, 0, 0, 0, 0, 0, 0, 0, 0, 1.8445e+13, 0.102905, -0.132067, -0.310167, 0.998979, -0.00899031, -0.0171791, -0.0408056, 8.57733e-05, 0.000254269, 0.000325846, 0.00101656, 0.000873029, 0.00950595, -0.0165712, -0.035064, -0.0813586, 0, 0, 0, 0, 0, 0, 0, 0, 0, 0, 0, 0, 0, 0, 0, 0, 0, 0, 0, 0, 0, 0, 0, 0, 0, 0, 0, 0, 0, 0, 0, 0, 0, 0, 0, 0, 0, 0, 0, 0, 0, 0, 0, 0, 0, 0, 0, 0, 0, 0, 0, 0, 0, 0, 0, 0, 0, 0, 0, 0, 0, 0, 0, 0, 0, 0, 0, 0, 0, 0, 0, 
[2024-06-13 11:56:34.142563] [0x0000007f887dd010] [LogDataTag] [0x00000af8] [437] 1718294193138008, 1.00414, 0, 0, 0, 0, 0, 0, 0, 0, 0, 0, 0, 0, 1.8445e+13, 0.102915, -0.132093, -0.310182, 0.998974, -0.00898851, -0.0171791, -0.0409338, 0.000249297, -0.00203633, 0.000307885, 0.00231424, -0.00155341, -0.0199184, -0.0165631, -0.0350661, -0.0816154, 0, 0, 0, 0, 0, 0, 0, 0, 0, 0, 0, 0, 0, 0, 0, 0, 0, 0, 0, 0, 0, 0, 0, 0, 0, 0, 0, 0, 0, 0, 0, 0, 0, 0, 0, 0, 0, 0, 0, 0, 0, 0, 0, 0, 0, 0, 0, 0, 0, 0, 0, 0, 0, 0, 0, 0, 0, 0, 0, 0, 0, 0, 0, 0, 0, 0, 0, 0, 0, 0, 0, 
[2024-06-13 11:56:34.152642] [0x0000007f887dd010] [LogDataTag] [0x00000af8] [441] 1718294193138008, 1.01415, 0, 0, 0, 0, 0, 0, 0, 0, 0, 0, 0, 0, 1.8445e+13, 0.102915, -0.132093, -0.310182, 0.998974, -0.00898851, -0.0171791, -0.0409338, 0.000249297, -0.00203633, 0.000307885, 0.00231424, -0.00155341, -0.0199184, -0.0165631, -0.0350661, -0.0816154, 0, 0, 0, 0, 0, 0, 0, 0, 0, 0, 0, 0, 0, 0, 0, 0, 0, 0, 0, 0, 0, 0, 0, 0, 0, 0, 0, 0, 0, 0, 0, 0, 0, 0, 0, 0, 0, 0, 0, 0, 0, 0, 0, 0, 0, 0, 0, 0, 0, 0, 0, 0, 0, 0, 0, 0, 0, 0, 0, 0, 0, 0, 0, 0, 0, 0, 0, 0, 0, 0, 0, 
[2024-06-13 11:56:34.162675] [0x0000007f818819a0] [LogDataTag] [0x00000af8] [446] 1718294193138008, 1.02413, 0, 0, 0, 0, 0, 0, 0, 0, 0, 0, 0, 0, 1.8445e+13, 0.102926, -0.13212, -0.310187, 0.998968, -0.00901108, -0.0172109, -0.04106, 0.000291577, -0.000591944, 0.000475241, -0.00131892, -0.00020878, -0.00503602, -0.0166012, -0.0351336, -0.081867, 0, 0, 0, 0, 0, 0, 0, 0, 0, 0, 0, 0, 0, 0, 0, 0, 0, 0, 0, 0, 0, 0, 0, 0, 0, 0, 0, 0, 0, 0, 0, 0, 0, 0, 0, 0, 0, 0, 0, 0, 0, 0, 0, 0, 0, 0, 0, 0, 0, 0, 0, 0, 0, 0, 0, 0, 0, 0, 0, 0, 0, 0, 0, 0, 0, 0, 0, 0, 0, 0, 0, 
[2024-06-13 11:56:34.172935] [0x0000007f818819a0] [LogDataTag] [0x00000af8] [451] 1718294193138008, 1.03451, 0, 0, 0, 0, 0, 0, 0, 0, 0, 0, 0, 0, 1.8445e+13, 0.102926, -0.13212, -0.310187, 0.998968, -0.00901108, -0.0172109, -0.04106, 0.000291577, -0.000591944, 0.000475241, -0.00131892, -0.00020878, -0.00503602, -0.0166012, -0.0351336, -0.081867, 0, 0, 0, 0, 0, 0, 0, 0, 0, 0, 0, 0, 0, 0, 0, 0, 0, 0, 0, 0, 0, 0, 0, 0, 0, 0, 0, 0, 0, 0, 0, 0, 0, 0, 0, 0, 0, 0, 0, 0, 0, 0, 0, 0, 0, 0, 0, 0, 0, 0, 0, 0, 0, 0, 0, 0, 0, 0, 0, 0, 0, 0, 0, 0, 0, 0, 0, 0, 0, 0, 0, 
