[2024-06-13 12:18:02.844126] [0x0000007f98d14010] [LogDataTag] [0x00002ff1] [1] Initial timestamp, Current time [s], User-defined position x [m], User-defined position y [m], User-defined position z [m], User-defined velocity x [m/s], User-defined velocity y [m/s], User-defined velocity z [m/s], User-defined acceleration x [m/s^2], User-defined acceleration y [m/s^2], User-defined acceleration z [m/s^2], User-defined yaw [rad], User-defined yaw_dot [rad/s], User-defined yaw_dot_dot [rad/s^2], Odometry time [s], Position x [m], Position y [m], Position z [m], Quaternion q0 [-], Quaternion q1 [-], Quaternion q2 [-], Quaternion q3 [-], Velocity x [m/s], Velocity y [m/s], Velocity z [m/s], Angular velocity x [rad/s], Angular velocity y [rad/s], Angular velocity z [rad/s], Roll [rad], Pitch [rad], Yaw [rad], Algorithm execution time [us], Mu translational raw x [N], Mu translational raw y [N], Mu translational raw z [N], Mu translational x [N], Mu translational y [N], Mu translational z [N], U control input U1 [N], U control input U2 [Nm], U control input U3 [Nm], U control input U4 [Nm], Roll reference [rad], Pitch reference [rad], Roll_dot reference [rad/s], Pitch_dot reference [rad/s], Roll_dot_dot reference [rad/s^2], Pitch_dot_dot reference [rad/s^2], Roll_dot [rad/s], Pitch_dot [rad/s], Yaw_dot [rad/s], Thrust motors QUADCOPTER T1 [N], Thrust motors QUADCOPTER T2 [N], Thrust motors QUADCOPTER T3 [N], Thrust motors QUADCOPTER T4 [N], Thrust motors normalized QUADCOPTER T1 [-], Thrust motors normalized QUADCOPTER T2 [-], Thrust motors normalized QUADCOPTER T3 [-], Thrust motors normalized QUADCOPTER T4 [-], Thrust motors X8COPTER T1 [N], Thrust motors X8COPTER T2 [N], Thrust motors X8COPTER T3 [N], Thrust motors X8COPTER T4 [N], Thrust motors X8COPTER T5 [N], Thrust motors X8COPTER T6 [N], Thrust motors X8COPTER T7 [N], Thrust motors X8COPTER T8 [N], Thrust motors normalized X8COPTER T1 [-], Thrust motors normalized X8COPTER T2 [-], Thrust motors normalized X8COPTER T3 [-], Thrust motors normalized X8COPTER T4 [-], Thrust motors normalized X8COPTER T5 [-], Thrust motors normalized X8COPTER T6 [-], Thrust motors normalized X8COPTER T7 [-], Thrust motors normalized X8COPTER T8 [-], Roll error [rad], Pitch error [rad], Yaw error [rad], Outer loop Proportional term x [-], Outer loop Proportional term y [-], Outer loop Proportional term z [-], Outer loop Integral term x [-], Outer loop Integral term y [-], Outer loop Integral term z [-], Outer loop Derivative term x [-], Outer loop Derivative term y [-], Outer loop Derivative term z [-], Outer loop Dynamic Inversion term x [-], Outer loop Dynamic Inversion term y [-], Outer loop Dynamic Inversion term z [-], Inner loop Proportional term x [-], Inner loop Proportional term y [-], Inner loop Proportional term z [-], Inner loop Integral term x [-], Inner loop Integral term y [-], Inner loop Integral term z [-], Inner loop Derivative term x [-], Inner loop Derivative term y [-], Inner loop Derivative term z [-], Inner loop Dynamic Inversion term x [-], Inner loop Dynamic Inversion term y [-], Inner loop Dynamic Inversion term z [-], 
[2024-06-13 12:18:02.904411] [0x0000007f915b79a0] [LogDataTag] [0x00002ff1] [3] 1718295482836884, 0.066912, 0, 0, 0, 0, 0, 0, 0, 0, 0, 0, 0, 0, 1.8445e+13, 0, 0, 0, 1, 0, 0, 0, 0, 0, 0, 0, 0, 0, 0, 0, 0, 0, 0, 0, 0, 0, 0, 0, 0, 0, 0, 0, 0, 0, 0, 0, 0, 0, 0, 0, 0, 0, 0, 0, 0, 0, 0, 0, 0, 0, 0, 0, 0, 0, 0, 0, 0, 0, 0, 0, 0, 0, 0, 0, 0, 0, 0, 0, 0, 0, 0, 0, 0, 0, 0, 0, 0, 0, 0, 0, 0, 0, 0, 0, 0, 0, 0, 0, 0, 0, 0, 0, 
[2024-06-13 12:18:02.906171] [0x0000007f91db89a0] [LogDataTag] [0x00002ff1] [5] 1718295482836884, 0.06878, 0, 0, 0, 0, 0, 0, 0, 0, 0, 0, 0, 0, 1.8445e+13, 0.07993, -0.192984, -0.316034, 0.99897, -0.00526658, -0.00375531, -0.044911, -0.00127155, 0.000139714, -0.00107865, 0.00234412, 0.00279242, 0.00185263, -0.0101855, -0.00797602, -0.0898135, 0, 0, 0, 0, 0, 0, 0, 0, 0, 0, 0, 0, 0, 0, 0, 0, 0, 0, 0, 0, 0, 0, 0, 0, 0, 0, 0, 0, 0, 0, 0, 0, 0, 0, 0, 0, 0, 0, 0, 0, 0, 0, 0, 0, 0, 0, 0, 0, 0, 0, 0, 0, 0, 0, 0, 0, 0, 0, 0, 0, 0, 0, 0, 0, 0, 0, 0, 0, 0, 0, 0, 
[2024-06-13 12:18:02.916221] [0x0000007f925b99a0] [LogDataTag] [0x00002ff1] [10] 1718295482836884, 0.078841, 0, 0, 0, 0, 0, 0, 0, 0, 0, 0, 0, 0, 1.8445e+13, 0.079945, -0.192992, -0.316002, 0.998971, -0.00526485, -0.00375896, -0.0449001, -0.0012726, 0.000233036, -0.00111963, 0.000379485, -0.000622407, 0.00209167, -0.0101818, -0.00798305, -0.0897916, 0, 0, 0, 0, 0, 0, 0, 0, 0, 0, 0, 0, 0, 0, 0, 0, 0, 0, 0, 0, 0, 0, 0, 0, 0, 0, 0, 0, 0, 0, 0, 0, 0, 0, 0, 0, 0, 0, 0, 0, 0, 0, 0, 0, 0, 0, 0, 0, 0, 0, 0, 0, 0, 0, 0, 0, 0, 0, 0, 0, 0, 0, 0, 0, 0, 0, 0, 0, 0, 0, 0, 
[2024-06-13 12:18:02.926627] [0x0000007f915b79a0] [LogDataTag] [0x00002ff1] [14] 1718295482836884, 0.088893, 0, 0, 0, 0, 0, 0, 0, 0, 0, 0, 0, 0, 1.8445e+13, 0.0799561, -0.193, -0.315994, 0.998971, -0.00526433, -0.00376071, -0.0448995, -0.00135714, 0.000261179, -0.000735738, 0.00617068, 0.0050253, 0.00508085, -0.0101806, -0.00798649, -0.0897904, 0, 0, 0, 0, 0, 0, 0, 0, 0, 0, 0, 0, 0, 0, 0, 0, 0, 0, 0, 0, 0, 0, 0, 0, 0, 0, 0, 0, 0, 0, 0, 0, 0, 0, 0, 0, 0, 0, 0, 0, 0, 0, 0, 0, 0, 0, 0, 0, 0, 0, 0, 0, 0, 0, 0, 0, 0, 0, 0, 0, 0, 0, 0, 0, 0, 0, 0, 0, 0, 0, 0, 
[2024-06-13 12:18:02.936540] [0x0000007f915b79a0] [LogDataTag] [0x00002ff1] [19] 1718295482836884, 0.0989, 0, 0, 0, 0, 0, 0, 0, 0, 0, 0, 0, 0, 1.8445e+13, 0.0799561, -0.193, -0.315994, 0.998971, -0.00526433, -0.00376071, -0.0448995, -0.00135714, 0.000261179, -0.000735738, 0.00617068, 0.0050253, 0.00508085, -0.0101806, -0.00798649, -0.0897904, 0, 0, 0, 0, 0, 0, 0, 0, 0, 0, 0, 0, 0, 0, 0, 0, 0, 0, 0, 0, 0, 0, 0, 0, 0, 0, 0, 0, 0, 0, 0, 0, 0, 0, 0, 0, 0, 0, 0, 0, 0, 0, 0, 0, 0, 0, 0, 0, 0, 0, 0, 0, 0, 0, 0, 0, 0, 0, 0, 0, 0, 0, 0, 0, 0, 0, 0, 0, 0, 0, 0, 
[2024-06-13 12:18:02.946252] [0x0000007f98d14010] [LogDataTag] [0x00002ff1] [23] 1718295482836884, 0.108899, 0, 0, 0, 0, 0, 0, 0, 0, 0, 0, 0, 0, 1.8445e+13, 0.0799799, -0.193015, -0.315971, 0.99897, -0.0052733, -0.00374253, -0.0449192, -0.0012305, 0.000328215, -0.000786485, 0.00263135, 0.00185361, 0.00644181, -0.0102, -0.00795117, -0.0898301, 0, 0, 0, 0, 0, 0, 0, 0, 0, 0, 0, 0, 0, 0, 0, 0, 0, 0, 0, 0, 0, 0, 0, 0, 0, 0, 0, 0, 0, 0, 0, 0, 0, 0, 0, 0, 0, 0, 0, 0, 0, 0, 0, 0, 0, 0, 0, 0, 0, 0, 0, 0, 0, 0, 0, 0, 0, 0, 0, 0, 0, 0, 0, 0, 0, 0, 0, 0, 0, 0, 0, 
[2024-06-13 12:18:02.956036] [0x0000007f91db89a0] [LogDataTag] [0x00002ff1] [28] 1718295482836884, 0.118758, 0, 0, 0, 0, 0, 0, 0, 0, 0, 0, 0, 0, 1.8445e+13, 0.0799857, -0.19302, -0.315965, 0.998971, -0.00527126, -0.00374815, -0.0448962, -0.00119894, 0.000215626, -0.000598406, -0.00318896, 0.00475257, 0.00915389, -0.0101956, -0.00796199, -0.0897839, 0, 0, 0, 0, 0, 0, 0, 0, 0, 0, 0, 0, 0, 0, 0, 0, 0, 0, 0, 0, 0, 0, 0, 0, 0, 0, 0, 0, 0, 0, 0, 0, 0, 0, 0, 0, 0, 0, 0, 0, 0, 0, 0, 0, 0, 0, 0, 0, 0, 0, 0, 0, 0, 0, 0, 0, 0, 0, 0, 0, 0, 0, 0, 0, 0, 0, 0, 0, 0, 0, 0, 
[2024-06-13 12:18:02.966288] [0x0000007f91db89a0] [LogDataTag] [0x00002ff1] [32] 1718295482836884, 0.128922, 0, 0, 0, 0, 0, 0, 0, 0, 0, 0, 0, 0, 1.8445e+13, 0.0799857, -0.19302, -0.315965, 0.998971, -0.00527126, -0.00374815, -0.0448962, -0.00119894, 0.000215626, -0.000598406, -0.00318896, 0.00475257, 0.00915389, -0.0101956, -0.00796199, -0.0897839, 0, 0, 0, 0, 0, 0, 0, 0, 0, 0, 0, 0, 0, 0, 0, 0, 0, 0, 0, 0, 0, 0, 0, 0, 0, 0, 0, 0, 0, 0, 0, 0, 0, 0, 0, 0, 0, 0, 0, 0, 0, 0, 0, 0, 0, 0, 0, 0, 0, 0, 0, 0, 0, 0, 0, 0, 0, 0, 0, 0, 0, 0, 0, 0, 0, 0, 0, 0, 0, 0, 0, 
[2024-06-13 12:18:02.976195] [0x0000007f98d14010] [LogDataTag] [0x00002ff1] [37] 1718295482836884, 0.138849, 0, 0, 0, 0, 0, 0, 0, 0, 0, 0, 0, 0, 1.8445e+13, 0.0799953, -0.193032, -0.31586, 0.998969, -0.00526859, -0.00377859, -0.0449269, -0.00137323, 0.000205593, -0.000583509, -0.00151895, -0.00214553, -0.00478194, -0.0101873, -0.00802288, -0.089845, 0, 0, 0, 0, 0, 0, 0, 0, 0, 0, 0, 0, 0, 0, 0, 0, 0, 0, 0, 0, 0, 0, 0, 0, 0, 0, 0, 0, 0, 0, 0, 0, 0, 0, 0, 0, 0, 0, 0, 0, 0, 0, 0, 0, 0, 0, 0, 0, 0, 0, 0, 0, 0, 0, 0, 0, 0, 0, 0, 0, 0, 0, 0, 0, 0, 0, 0, 0, 0, 0, 0, 
[2024-06-13 12:18:02.986249] [0x0000007f98d14010] [LogDataTag] [0x00002ff1] [41] 1718295482836884, 0.148889, 0, 0, 0, 0, 0, 0, 0, 0, 0, 0, 0, 0, 1.8445e+13, 0.0799953, -0.193032, -0.31586, 0.998969, -0.00526859, -0.00377859, -0.0449269, -0.00137323, 0.000205593, -0.000583509, -0.00151895, -0.00214553, -0.00478194, -0.0101873, -0.00802288, -0.089845, 0, 0, 0, 0, 0, 0, 0, 0, 0, 0, 0, 0, 0, 0, 0, 0, 0, 0, 0, 0, 0, 0, 0, 0, 0, 0, 0, 0, 0, 0, 0, 0, 0, 0, 0, 0, 0, 0, 0, 0, 0, 0, 0, 0, 0, 0, 0, 0, 0, 0, 0, 0, 0, 0, 0, 0, 0, 0, 0, 0, 0, 0, 0, 0, 0, 0, 0, 0, 0, 0, 0, 
[2024-06-13 12:18:02.996311] [0x0000007f915b79a0] [LogDataTag] [0x00002ff1] [45] 1718295482836884, 0.158887, 0, 0, 0, 0, 0, 0, 0, 0, 0, 0, 0, 0, 1.8445e+13, 0.0799975, -0.193042, -0.315693, 0.99897, -0.00524593, -0.00379521, -0.0449094, -0.00135615, 0.000148208, -0.000510679, 0.00413598, 2.19092e-05, 0.00654196, -0.0101407, -0.00805388, -0.0898101, 0, 0, 0, 0, 0, 0, 0, 0, 0, 0, 0, 0, 0, 0, 0, 0, 0, 0, 0, 0, 0, 0, 0, 0, 0, 0, 0, 0, 0, 0, 0, 0, 0, 0, 0, 0, 0, 0, 0, 0, 0, 0, 0, 0, 0, 0, 0, 0, 0, 0, 0, 0, 0, 0, 0, 0, 0, 0, 0, 0, 0, 0, 0, 0, 0, 0, 0, 0, 0, 0, 0, 
[2024-06-13 12:18:03.006612] [0x0000007f98d14010] [LogDataTag] [0x00002ff1] [50] 1718295482836884, 0.169167, 0, 0, 0, 0, 0, 0, 0, 0, 0, 0, 0, 0, 1.8445e+13, 0.0799964, -0.193046, -0.315619, 0.99897, -0.00525245, -0.00378303, -0.0449091, -0.00140689, 0.000201634, -0.00041585, -0.00225808, 0.000874067, 0.00494611, -0.0101548, -0.00803012, -0.0898096, 0, 0, 0, 0, 0, 0, 0, 0, 0, 0, 0, 0, 0, 0, 0, 0, 0, 0, 0, 0, 0, 0, 0, 0, 0, 0, 0, 0, 0, 0, 0, 0, 0, 0, 0, 0, 0, 0, 0, 0, 0, 0, 0, 0, 0, 0, 0, 0, 0, 0, 0, 0, 0, 0, 0, 0, 0, 0, 0, 0, 0, 0, 0, 0, 0, 0, 0, 0, 0, 0, 0, 
[2024-06-13 12:18:03.016403] [0x0000007f98d14010] [LogDataTag] [0x00002ff1] [54] 1718295482836884, 0.179009, 0, 0, 0, 0, 0, 0, 0, 0, 0, 0, 0, 0, 1.8445e+13, 0.0799964, -0.193046, -0.315619, 0.99897, -0.00525245, -0.00378303, -0.0449091, -0.00140689, 0.000201634, -0.00041585, -0.00225808, 0.000874067, 0.00494611, -0.0101548, -0.00803012, -0.0898096, 0, 0, 0, 0, 0, 0, 0, 0, 0, 0, 0, 0, 0, 0, 0, 0, 0, 0, 0, 0, 0, 0, 0, 0, 0, 0, 0, 0, 0, 0, 0, 0, 0, 0, 0, 0, 0, 0, 0, 0, 0, 0, 0, 0, 0, 0, 0, 0, 0, 0, 0, 0, 0, 0, 0, 0, 0, 0, 0, 0, 0, 0, 0, 0, 0, 0, 0, 0, 0, 0, 0, 
[2024-06-13 12:18:03.026241] [0x0000007f91db89a0] [LogDataTag] [0x00002ff1] [59] 1718295482836884, 0.188874, 0, 0, 0, 0, 0, 0, 0, 0, 0, 0, 0, 0, 1.8445e+13, 0.0799901, -0.193059, -0.315469, 0.99897, -0.0052604, -0.00376501, -0.0449167, -0.00128671, 0.000223125, -0.000140208, -0.00196388, -0.000431698, -0.000521429, -0.0101722, -0.0079949, -0.0898249, 0, 0, 0, 0, 0, 0, 0, 0, 0, 0, 0, 0, 0, 0, 0, 0, 0, 0, 0, 0, 0, 0, 0, 0, 0, 0, 0, 0, 0, 0, 0, 0, 0, 0, 0, 0, 0, 0, 0, 0, 0, 0, 0, 0, 0, 0, 0, 0, 0, 0, 0, 0, 0, 0, 0, 0, 0, 0, 0, 0, 0, 0, 0, 0, 0, 0, 0, 0, 0, 0, 0, 
[2024-06-13 12:18:03.036270] [0x0000007f91db89a0] [LogDataTag] [0x00002ff1] [63] 1718295482836884, 0.198952, 0, 0, 0, 0, 0, 0, 0, 0, 0, 0, 0, 0, 1.8445e+13, 0.0799864, -0.193062, -0.315452, 0.99897, -0.00524822, -0.00377002, -0.044914, -0.00144636, 0.000229607, 9.30111e-05, 0.00195688, -0.00141128, 0.00227021, -0.0101475, -0.0080038, -0.0898196, 0, 0, 0, 0, 0, 0, 0, 0, 0, 0, 0, 0, 0, 0, 0, 0, 0, 0, 0, 0, 0, 0, 0, 0, 0, 0, 0, 0, 0, 0, 0, 0, 0, 0, 0, 0, 0, 0, 0, 0, 0, 0, 0, 0, 0, 0, 0, 0, 0, 0, 0, 0, 0, 0, 0, 0, 0, 0, 0, 0, 0, 0, 0, 0, 0, 0, 0, 0, 0, 0, 0, 
[2024-06-13 12:18:03.046248] [0x0000007f915b79a0] [LogDataTag] [0x00002ff1] [68] 1718295482836884, 0.208919, 0, 0, 0, 0, 0, 0, 0, 0, 0, 0, 0, 0, 1.8445e+13, 0.0799806, -0.193065, -0.315435, 0.998971, -0.00523403, -0.00375303, -0.0449012, -0.00155373, 0.000205676, 0.000139699, 0.00333184, 0.00195584, 0.00452746, -0.0101207, -0.00796846, -0.0897941, 0, 0, 0, 0, 0, 0, 0, 0, 0, 0, 0, 0, 0, 0, 0, 0, 0, 0, 0, 0, 0, 0, 0, 0, 0, 0, 0, 0, 0, 0, 0, 0, 0, 0, 0, 0, 0, 0, 0, 0, 0, 0, 0, 0, 0, 0, 0, 0, 0, 0, 0, 0, 0, 0, 0, 0, 0, 0, 0, 0, 0, 0, 0, 0, 0, 0, 0, 0, 0, 0, 0, 
[2024-06-13 12:18:03.056250] [0x0000007f915b79a0] [LogDataTag] [0x00002ff1] [72] 1718295482836884, 0.218886, 0, 0, 0, 0, 0, 0, 0, 0, 0, 0, 0, 0, 1.8445e+13, 0.0799806, -0.193065, -0.315435, 0.998971, -0.00523403, -0.00375303, -0.0449012, -0.00155373, 0.000205676, 0.000139699, 0.00333184, 0.00195584, 0.00452746, -0.0101207, -0.00796846, -0.0897941, 0, 0, 0, 0, 0, 0, 0, 0, 0, 0, 0, 0, 0, 0, 0, 0, 0, 0, 0, 0, 0, 0, 0, 0, 0, 0, 0, 0, 0, 0, 0, 0, 0, 0, 0, 0, 0, 0, 0, 0, 0, 0, 0, 0, 0, 0, 0, 0, 0, 0, 0, 0, 0, 0, 0, 0, 0, 0, 0, 0, 0, 0, 0, 0, 0, 0, 0, 0, 0, 0, 0, 
[2024-06-13 12:18:03.066451] [0x0000007f98d14010] [LogDataTag] [0x00002ff1] [76] 1718295482836884, 0.228835, 0, 0, 0, 0, 0, 0, 0, 0, 0, 0, 0, 0, 1.8445e+13, 0.0799638, -0.193091, -0.315406, 0.998965, -0.00525118, -0.00375052, -0.0450301, -0.00146725, -0.00174688, -0.000355688, -0.00606786, 0.000180583, -0.0249124, -0.0101542, -0.00796628, -0.0900522, 0, 0, 0, 0, 0, 0, 0, 0, 0, 0, 0, 0, 0, 0, 0, 0, 0, 0, 0, 0, 0, 0, 0, 0, 0, 0, 0, 0, 0, 0, 0, 0, 0, 0, 0, 0, 0, 0, 0, 0, 0, 0, 0, 0, 0, 0, 0, 0, 0, 0, 0, 0, 0, 0, 0, 0, 0, 0, 0, 0, 0, 0, 0, 0, 0, 0, 0, 0, 0, 0, 0, 
[2024-06-13 12:18:03.076278] [0x0000007f91db89a0] [LogDataTag] [0x00002ff1] [81] 1718295482836884, 0.238913, 0, 0, 0, 0, 0, 0, 0, 0, 0, 0, 0, 0, 1.8445e+13, 0.0799527, -0.1931, -0.315394, 0.998964, -0.00524855, -0.0037662, -0.0450578, -0.00217394, 0.000607785, 1.46322e-05, 0.000967285, -0.00801977, 0.00483776, -0.0101473, -0.00799766, -0.0901074, 0, 0, 0, 0, 0, 0, 0, 0, 0, 0, 0, 0, 0, 0, 0, 0, 0, 0, 0, 0, 0, 0, 0, 0, 0, 0, 0, 0, 0, 0, 0, 0, 0, 0, 0, 0, 0, 0, 0, 0, 0, 0, 0, 0, 0, 0, 0, 0, 0, 0, 0, 0, 0, 0, 0, 0, 0, 0, 0, 0, 0, 0, 0, 0, 0, 0, 0, 0, 0, 0, 0, 
[2024-06-13 12:18:03.086212] [0x0000007f925b99a0] [LogDataTag] [0x00002ff1] [86] 1718295482836884, 0.24889, 0, 0, 0, 0, 0, 0, 0, 0, 0, 0, 0, 0, 1.8445e+13, 0.0799596, -0.193088, -0.315295, 0.99897, -0.00524335, -0.00374852, -0.0449203, -0.00156088, 0.00301849, -0.000566191, 0.00317301, 0.000419255, 0.0449355, -0.0101396, -0.00796046, -0.0898324, 0, 0, 0, 0, 0, 0, 0, 0, 0, 0, 0, 0, 0, 0, 0, 0, 0, 0, 0, 0, 0, 0, 0, 0, 0, 0, 0, 0, 0, 0, 0, 0, 0, 0, 0, 0, 0, 0, 0, 0, 0, 0, 0, 0, 0, 0, 0, 0, 0, 0, 0, 0, 0, 0, 0, 0, 0, 0, 0, 0, 0, 0, 0, 0, 0, 0, 0, 0, 0, 0, 0, 
[2024-06-13 12:18:03.096442] [0x0000007f915b79a0] [LogDataTag] [0x00002ff1] [89] 1718295482836884, 0.259073, 0, 0, 0, 0, 0, 0, 0, 0, 0, 0, 0, 0, 1.8445e+13, 0.079966, -0.193068, -0.315207, 0.998977, -0.0052424, -0.00374416, -0.0447588, -0.00177017, 0.00246893, -0.000745035, 0.00133639, -0.00321261, 0.0331266, -0.0101394, -0.00795003, -0.0895091, 0, 0, 0, 0, 0, 0, 0, 0, 0, 0, 0, 0, 0, 0, 0, 0, 0, 0, 0, 0, 0, 0, 0, 0, 0, 0, 0, 0, 0, 0, 0, 0, 0, 0, 0, 0, 0, 0, 0, 0, 0, 0, 0, 0, 0, 0, 0, 0, 0, 0, 0, 0, 0, 0, 0, 0, 0, 0, 0, 0, 0, 0, 0, 0, 0, 0, 0, 0, 0, 0, 0, 
[2024-06-13 12:18:03.106259] [0x0000007f915b79a0] [LogDataTag] [0x00002ff1] [94] 1718295482836884, 0.268902, 0, 0, 0, 0, 0, 0, 0, 0, 0, 0, 0, 0, 1.8445e+13, 0.0799666, -0.193059, -0.315125, 0.998981, -0.00521542, -0.00373126, -0.0446737, -0.00237387, 0.000506627, -0.000175551, 0.00635743, 0.00661552, 0.0133619, -0.0100873, -0.00792099, -0.0893391, 0, 0, 0, 0, 0, 0, 0, 0, 0, 0, 0, 0, 0, 0, 0, 0, 0, 0, 0, 0, 0, 0, 0, 0, 0, 0, 0, 0, 0, 0, 0, 0, 0, 0, 0, 0, 0, 0, 0, 0, 0, 0, 0, 0, 0, 0, 0, 0, 0, 0, 0, 0, 0, 0, 0, 0, 0, 0, 0, 0, 0, 0, 0, 0, 0, 0, 0, 0, 0, 0, 0, 
[2024-06-13 12:18:03.116410] [0x0000007f915b79a0] [LogDataTag] [0x00002ff1] [99] 1718295482836884, 0.27889, 0, 0, 0, 0, 0, 0, 0, 0, 0, 0, 0, 0, 1.8445e+13, 0.0799666, -0.193059, -0.315125, 0.998981, -0.00521542, -0.00373126, -0.0446737, -0.00237387, 0.000506627, -0.000175551, 0.00635743, 0.00661552, 0.0133619, -0.0100873, -0.00792099, -0.0893391, 0, 0, 0, 0, 0, 0, 0, 0, 0, 0, 0, 0, 0, 0, 0, 0, 0, 0, 0, 0, 0, 0, 0, 0, 0, 0, 0, 0, 0, 0, 0, 0, 0, 0, 0, 0, 0, 0, 0, 0, 0, 0, 0, 0, 0, 0, 0, 0, 0, 0, 0, 0, 0, 0, 0, 0, 0, 0, 0, 0, 0, 0, 0, 0, 0, 0, 0, 0, 0, 0, 0, 
[2024-06-13 12:18:03.126185] [0x0000007f91db89a0] [LogDataTag] [0x00002ff1] [103] 1718295482836884, 0.288834, 0, 0, 0, 0, 0, 0, 0, 0, 0, 0, 0, 0, 1.8445e+13, 0.0833506, -0.184495, -0.313844, 0.998964, -0.00526374, -0.00377178, -0.045044, -0.00252502, -0.000829717, 0.00107262, -0.00132038, -0.00309364, -0.0296652, -0.0101773, -0.00801003, -0.0900796, 0, 0, 0, 0, 0, 0, 0, 0, 0, 0, 0, 0, 0, 0, 0, 0, 0, 0, 0, 0, 0, 0, 0, 0, 0, 0, 0, 0, 0, 0, 0, 0, 0, 0, 0, 0, 0, 0, 0, 0, 0, 0, 0, 0, 0, 0, 0, 0, 0, 0, 0, 0, 0, 0, 0, 0, 0, 0, 0, 0, 0, 0, 0, 0, 0, 0, 0, 0, 0, 0, 0, 
[2024-06-13 12:18:03.136275] [0x0000007f915b79a0] [LogDataTag] [0x00002ff1] [108] 1718295482836884, 0.298875, 0, 0, 0, 0, 0, 0, 0, 0, 0, 0, 0, 0, 1.8445e+13, 0.0833419, -0.184498, -0.313775, 0.998961, -0.00526844, -0.00378663, -0.0451048, -0.00256056, 0.00112997, 0.000700465, 0.00519601, -0.00331214, -0.00251072, -0.0101848, -0.00804074, -0.0902013, 0, 0, 0, 0, 0, 0, 0, 0, 0, 0, 0, 0, 0, 0, 0, 0, 0, 0, 0, 0, 0, 0, 0, 0, 0, 0, 0, 0, 0, 0, 0, 0, 0, 0, 0, 0, 0, 0, 0, 0, 0, 0, 0, 0, 0, 0, 0, 0, 0, 0, 0, 0, 0, 0, 0, 0, 0, 0, 0, 0, 0, 0, 0, 0, 0, 0, 0, 0, 0, 0, 0, 
[2024-06-13 12:18:03.146228] [0x0000007f915b79a0] [LogDataTag] [0x00002ff1] [112] 1718295482836884, 0.308937, 0, 0, 0, 0, 0, 0, 0, 0, 0, 0, 0, 0, 1.8445e+13, 0.0833419, -0.184498, -0.313775, 0.998961, -0.00526844, -0.00378663, -0.0451048, -0.00256056, 0.00112997, 0.000700465, 0.00519601, -0.00331214, -0.00251072, -0.0101848, -0.00804074, -0.0902013, 0, 0, 0, 0, 0, 0, 0, 0, 0, 0, 0, 0, 0, 0, 0, 0, 0, 0, 0, 0, 0, 0, 0, 0, 0, 0, 0, 0, 0, 0, 0, 0, 0, 0, 0, 0, 0, 0, 0, 0, 0, 0, 0, 0, 0, 0, 0, 0, 0, 0, 0, 0, 0, 0, 0, 0, 0, 0, 0, 0, 0, 0, 0, 0, 0, 0, 0, 0, 0, 0, 0, 
[2024-06-13 12:18:03.156225] [0x0000007f91db89a0] [LogDataTag] [0x00002ff1] [116] 1718295482836884, 0.318865, 0, 0, 0, 0, 0, 0, 0, 0, 0, 0, 0, 0, 1.8445e+13, 0.0833207, -0.184458, -0.31366, 0.998972, -0.00523699, -0.00376616, -0.0448732, -0.00251083, 0.00334574, -0.000187904, 0.0100219, 0.00368897, 0.0348742, -0.0101257, -0.00799466, -0.0897379, 0, 0, 0, 0, 0, 0, 0, 0, 0, 0, 0, 0, 0, 0, 0, 0, 0, 0, 0, 0, 0, 0, 0, 0, 0, 0, 0, 0, 0, 0, 0, 0, 0, 0, 0, 0, 0, 0, 0, 0, 0, 0, 0, 0, 0, 0, 0, 0, 0, 0, 0, 0, 0, 0, 0, 0, 0, 0, 0, 0, 0, 0, 0, 0, 0, 0, 0, 0, 0, 0, 0, 
[2024-06-13 12:18:03.167334] [0x0000007f91db89a0] [LogDataTag] [0x00002ff1] [121] 1718295482836884, 0.329992, 0, 0, 0, 0, 0, 0, 0, 0, 0, 0, 0, 0, 1.8445e+13, 0.0833207, -0.184458, -0.31366, 0.998972, -0.00523699, -0.00376616, -0.0448732, -0.00251083, 0.00334574, -0.000187904, 0.0100219, 0.00368897, 0.0348742, -0.0101257, -0.00799466, -0.0897379, 0, 0, 0, 0, 0, 0, 0, 0, 0, 0, 0, 0, 0, 0, 0, 0, 0, 0, 0, 0, 0, 0, 0, 0, 0, 0, 0, 0, 0, 0, 0, 0, 0, 0, 0, 0, 0, 0, 0, 0, 0, 0, 0, 0, 0, 0, 0, 0, 0, 0, 0, 0, 0, 0, 0, 0, 0, 0, 0, 0, 0, 0, 0, 0, 0, 0, 0, 0, 0, 0, 0, 
[2024-06-13 12:18:03.176227] [0x0000007f98d14010] [LogDataTag] [0x00002ff1] [125] 1718295482836884, 0.338878, 0, 0, 0, 0, 0, 0, 0, 0, 0, 0, 0, 0, 1.8445e+13, 0.0832988, -0.184427, -0.313564, 0.998978, -0.00526343, -0.00374621, -0.0447474, -0.00244458, 0.000637268, 0.000438753, -0.00243401, -0.00638385, -0.00375437, -0.0101813, -0.00795589, -0.089486, 0, 0, 0, 0, 0, 0, 0, 0, 0, 0, 0, 0, 0, 0, 0, 0, 0, 0, 0, 0, 0, 0, 0, 0, 0, 0, 0, 0, 0, 0, 0, 0, 0, 0, 0, 0, 0, 0, 0, 0, 0, 0, 0, 0, 0, 0, 0, 0, 0, 0, 0, 0, 0, 0, 0, 0, 0, 0, 0, 0, 0, 0, 0, 0, 0, 0, 0, 0, 0, 0, 0, 
[2024-06-13 12:18:03.186250] [0x0000007f925b99a0] [LogDataTag] [0x00002ff1] [130] 1718295482836884, 0.348892, 0, 0, 0, 0, 0, 0, 0, 0, 0, 0, 0, 0, 1.8445e+13, 0.0832871, -0.184429, -0.313519, 0.998974, -0.00527522, -0.00375276, -0.0448336, -0.00260299, -0.00014905, 0.000357753, -0.00219208, -0.00568287, -0.0236768, -0.0102036, -0.00797092, -0.0896584, 0, 0, 0, 0, 0, 0, 0, 0, 0, 0, 0, 0, 0, 0, 0, 0, 0, 0, 0, 0, 0, 0, 0, 0, 0, 0, 0, 0, 0, 0, 0, 0, 0, 0, 0, 0, 0, 0, 0, 0, 0, 0, 0, 0, 0, 0, 0, 0, 0, 0, 0, 0, 0, 0, 0, 0, 0, 0, 0, 0, 0, 0, 0, 0, 0, 0, 0, 0, 0, 0, 0, 
[2024-06-13 12:18:03.196842] [0x0000007f925b99a0] [LogDataTag] [0x00002ff1] [134] 1718295482836884, 0.359498, 0, 0, 0, 0, 0, 0, 0, 0, 0, 0, 0, 0, 1.8445e+13, 0.0832871, -0.184429, -0.313519, 0.998974, -0.00527522, -0.00375276, -0.0448336, -0.00260299, -0.00014905, 0.000357753, -0.00219208, -0.00568287, -0.0236768, -0.0102036, -0.00797092, -0.0896584, 0, 0, 0, 0, 0, 0, 0, 0, 0, 0, 0, 0, 0, 0, 0, 0, 0, 0, 0, 0, 0, 0, 0, 0, 0, 0, 0, 0, 0, 0, 0, 0, 0, 0, 0, 0, 0, 0, 0, 0, 0, 0, 0, 0, 0, 0, 0, 0, 0, 0, 0, 0, 0, 0, 0, 0, 0, 0, 0, 0, 0, 0, 0, 0, 0, 0, 0, 0, 0, 0, 0, 
[2024-06-13 12:18:03.206184] [0x0000007f91db89a0] [LogDataTag] [0x00002ff1] [138] 1718295482836884, 0.36888, 0, 0, 0, 0, 0, 0, 0, 0, 0, 0, 0, 0, 1.8445e+13, 0.0832505, -0.184428, -0.31341, 0.998963, -0.00529806, -0.00379713, -0.0450514, -0.00228825, 0.00224925, -2.80937e-05, -0.000612678, 0.00407202, 0.0124455, -0.0102435, -0.00806384, -0.0900938, 0, 0, 0, 0, 0, 0, 0, 0, 0, 0, 0, 0, 0, 0, 0, 0, 0, 0, 0, 0, 0, 0, 0, 0, 0, 0, 0, 0, 0, 0, 0, 0, 0, 0, 0, 0, 0, 0, 0, 0, 0, 0, 0, 0, 0, 0, 0, 0, 0, 0, 0, 0, 0, 0, 0, 0, 0, 0, 0, 0, 0, 0, 0, 0, 0, 0, 0, 0, 0, 0, 0, 
[2024-06-13 12:18:03.216908] [0x0000007f91db89a0] [LogDataTag] [0x00002ff1] [142] 1718295482836884, 0.379546, 0, 0, 0, 0, 0, 0, 0, 0, 0, 0, 0, 0, 1.8445e+13, 0.083239, -0.184406, -0.313379, 0.998968, -0.00531428, -0.00376914, -0.04496, -0.00231327, 0.00327451, 0.000267774, -0.00112837, 0.00445379, 0.0231161, -0.0102792, -0.00800844, -0.0899111, 0, 0, 0, 0, 0, 0, 0, 0, 0, 0, 0, 0, 0, 0, 0, 0, 0, 0, 0, 0, 0, 0, 0, 0, 0, 0, 0, 0, 0, 0, 0, 0, 0, 0, 0, 0, 0, 0, 0, 0, 0, 0, 0, 0, 0, 0, 0, 0, 0, 0, 0, 0, 0, 0, 0, 0, 0, 0, 0, 0, 0, 0, 0, 0, 0, 0, 0, 0, 0, 0, 0, 
[2024-06-13 12:18:03.226188] [0x0000007f98d14010] [LogDataTag] [0x00002ff1] [146] 1718295482836884, 0.388853, 0, 0, 0, 0, 0, 0, 0, 0, 0, 0, 0, 0, 1.8445e+13, 0.083228, -0.184379, -0.313345, 0.998972, -0.00530071, -0.00377776, -0.0448559, -0.00215082, 0.00310933, 0.000937455, 0.00647826, 0.00279806, 0.0225618, -0.0102521, -0.00802338, -0.0897027, 0, 0, 0, 0, 0, 0, 0, 0, 0, 0, 0, 0, 0, 0, 0, 0, 0, 0, 0, 0, 0, 0, 0, 0, 0, 0, 0, 0, 0, 0, 0, 0, 0, 0, 0, 0, 0, 0, 0, 0, 0, 0, 0, 0, 0, 0, 0, 0, 0, 0, 0, 0, 0, 0, 0, 0, 0, 0, 0, 0, 0, 0, 0, 0, 0, 0, 0, 0, 0, 0, 0, 
[2024-06-13 12:18:03.236238] [0x0000007f915b79a0] [LogDataTag] [0x00002ff1] [150] 1718295482836884, 0.398864, 0, 0, 0, 0, 0, 0, 0, 0, 0, 0, 0, 0, 1.8445e+13, 0.0832172, -0.184357, -0.31331, 0.998976, -0.00531207, -0.00378071, -0.044781, -0.00225607, 0.00244632, 0.000798141, 0.00278863, -0.00343841, 0.0143077, -0.0102752, -0.00802952, -0.0895525, 0, 0, 0, 0, 0, 0, 0, 0, 0, 0, 0, 0, 0, 0, 0, 0, 0, 0, 0, 0, 0, 0, 0, 0, 0, 0, 0, 0, 0, 0, 0, 0, 0, 0, 0, 0, 0, 0, 0, 0, 0, 0, 0, 0, 0, 0, 0, 0, 0, 0, 0, 0, 0, 0, 0, 0, 0, 0, 0, 0, 0, 0, 0, 0, 0, 0, 0, 0, 0, 0, 0, 
[2024-06-13 12:18:03.246229] [0x0000007f915b79a0] [LogDataTag] [0x00002ff1] [155] 1718295482836884, 0.408878, 0, 0, 0, 0, 0, 0, 0, 0, 0, 0, 0, 0, 1.8445e+13, 0.0832172, -0.184357, -0.31331, 0.998976, -0.00531207, -0.00378071, -0.044781, -0.00225607, 0.00244632, 0.000798141, 0.00278863, -0.00343841, 0.0143077, -0.0102752, -0.00802952, -0.0895525, 0, 0, 0, 0, 0, 0, 0, 0, 0, 0, 0, 0, 0, 0, 0, 0, 0, 0, 0, 0, 0, 0, 0, 0, 0, 0, 0, 0, 0, 0, 0, 0, 0, 0, 0, 0, 0, 0, 0, 0, 0, 0, 0, 0, 0, 0, 0, 0, 0, 0, 0, 0, 0, 0, 0, 0, 0, 0, 0, 0, 0, 0, 0, 0, 0, 0, 0, 0, 0, 0, 0, 
[2024-06-13 12:18:03.256554] [0x0000007f91db89a0] [LogDataTag] [0x00002ff1] [159] 1718295482836884, 0.418858, 0, 0, 0, 0, 0, 0, 0, 0, 0, 0, 0, 0, 1.8445e+13, 0.0831928, -0.184332, -0.313243, 0.998971, -0.0053225, -0.00378977, -0.0448843, -0.00226178, 0.00116743, 0.00138186, -0.00176813, -0.000708905, -0.0152068, -0.0102944, -0.00804962, -0.0897593, 0, 0, 0, 0, 0, 0, 0, 0, 0, 0, 0, 0, 0, 0, 0, 0, 0, 0, 0, 0, 0, 0, 0, 0, 0, 0, 0, 0, 0, 0, 0, 0, 0, 0, 0, 0, 0, 0, 0, 0, 0, 0, 0, 0, 0, 0, 0, 0, 0, 0, 0, 0, 0, 0, 0, 0, 0, 0, 0, 0, 0, 0, 0, 0, 0, 0, 0, 0, 0, 0, 0, 
[2024-06-13 12:18:03.266233] [0x0000007f91db89a0] [LogDataTag] [0x00002ff1] [164] 1718295482836884, 0.428879, 0, 0, 0, 0, 0, 0, 0, 0, 0, 0, 0, 0, 1.8445e+13, 0.0831928, -0.184332, -0.313243, 0.998971, -0.0053225, -0.00378977, -0.0448843, -0.00226178, 0.00116743, 0.00138186, -0.00176813, -0.000708905, -0.0152068, -0.0102944, -0.00804962, -0.0897593, 0, 0, 0, 0, 0, 0, 0, 0, 0, 0, 0, 0, 0, 0, 0, 0, 0, 0, 0, 0, 0, 0, 0, 0, 0, 0, 0, 0, 0, 0, 0, 0, 0, 0, 0, 0, 0, 0, 0, 0, 0, 0, 0, 0, 0, 0, 0, 0, 0, 0, 0, 0, 0, 0, 0, 0, 0, 0, 0, 0, 0, 0, 0, 0, 0, 0, 0, 0, 0, 0, 0, 
[2024-06-13 12:18:03.276244] [0x0000007f91db89a0] [LogDataTag] [0x00002ff1] [168] 1718295482836884, 0.43888, 0, 0, 0, 0, 0, 0, 0, 0, 0, 0, 0, 0, 1.8445e+13, 0.0831928, -0.184332, -0.313243, 0.998971, -0.0053225, -0.00378977, -0.0448843, -0.00226178, 0.00116743, 0.00138186, -0.00176813, -0.000708905, -0.0152068, -0.0102944, -0.00804962, -0.0897593, 0, 0, 0, 0, 0, 0, 0, 0, 0, 0, 0, 0, 0, 0, 0, 0, 0, 0, 0, 0, 0, 0, 0, 0, 0, 0, 0, 0, 0, 0, 0, 0, 0, 0, 0, 0, 0, 0, 0, 0, 0, 0, 0, 0, 0, 0, 0, 0, 0, 0, 0, 0, 0, 0, 0, 0, 0, 0, 0, 0, 0, 0, 0, 0, 0, 0, 0, 0, 0, 0, 0, 
[2024-06-13 12:18:03.286193] [0x0000007f925b99a0] [LogDataTag] [0x00002ff1] [173] 1718295482836884, 0.448855, 0, 0, 0, 0, 0, 0, 0, 0, 0, 0, 0, 0, 1.8445e+13, 0.0831577, -0.184282, -0.313156, 0.998967, -0.00530849, -0.00382223, -0.0449739, -0.00193799, 0.00314193, 0.000853669, 0.00510886, -0.00427302, 0.010503, -0.0102627, -0.00811415, -0.0899385, 0, 0, 0, 0, 0, 0, 0, 0, 0, 0, 0, 0, 0, 0, 0, 0, 0, 0, 0, 0, 0, 0, 0, 0, 0, 0, 0, 0, 0, 0, 0, 0, 0, 0, 0, 0, 0, 0, 0, 0, 0, 0, 0, 0, 0, 0, 0, 0, 0, 0, 0, 0, 0, 0, 0, 0, 0, 0, 0, 0, 0, 0, 0, 0, 0, 0, 0, 0, 0, 0, 0, 
[2024-06-13 12:18:03.296144] [0x0000007f91db89a0] [LogDataTag] [0x00002ff1] [178] 1718295482836884, 0.458834, 0, 0, 0, 0, 0, 0, 0, 0, 0, 0, 0, 0, 1.8445e+13, 0.0831401, -0.184228, -0.313111, 0.998971, -0.0053026, -0.00383859, -0.0448785, -0.00211435, 0.00317288, 0.000502045, 0.00125784, 0.00184779, 0.0059117, -0.0102503, -0.00814531, -0.0897473, 0, 0, 0, 0, 0, 0, 0, 0, 0, 0, 0, 0, 0, 0, 0, 0, 0, 0, 0, 0, 0, 0, 0, 0, 0, 0, 0, 0, 0, 0, 0, 0, 0, 0, 0, 0, 0, 0, 0, 0, 0, 0, 0, 0, 0, 0, 0, 0, 0, 0, 0, 0, 0, 0, 0, 0, 0, 0, 0, 0, 0, 0, 0, 0, 0, 0, 0, 0, 0, 0, 0, 
[2024-06-13 12:18:03.306262] [0x0000007f91db89a0] [LogDataTag] [0x00002ff1] [182] 1718295482836884, 0.468917, 0, 0, 0, 0, 0, 0, 0, 0, 0, 0, 0, 0, 1.8445e+13, 0.0831401, -0.184228, -0.313111, 0.998971, -0.0053026, -0.00383859, -0.0448785, -0.00211435, 0.00317288, 0.000502045, 0.00125784, 0.00184779, 0.0059117, -0.0102503, -0.00814531, -0.0897473, 0, 0, 0, 0, 0, 0, 0, 0, 0, 0, 0, 0, 0, 0, 0, 0, 0, 0, 0, 0, 0, 0, 0, 0, 0, 0, 0, 0, 0, 0, 0, 0, 0, 0, 0, 0, 0, 0, 0, 0, 0, 0, 0, 0, 0, 0, 0, 0, 0, 0, 0, 0, 0, 0, 0, 0, 0, 0, 0, 0, 0, 0, 0, 0, 0, 0, 0, 0, 0, 0, 0, 
[2024-06-13 12:18:03.316135] [0x0000007f915b79a0] [LogDataTag] [0x00002ff1] [186] 1718295482836884, 0.478791, 0, 0, 0, 0, 0, 0, 0, 0, 0, 0, 0, 0, 1.8445e+13, 0.0831234, -0.184182, -0.31307, 0.998972, -0.00532941, -0.00381525, -0.0448481, -0.00198128, 0.00230568, 0.0011712, -0.00638742, -0.00428339, -0.00146597, -0.0103062, -0.00810077, -0.0896865, 0, 0, 0, 0, 0, 0, 0, 0, 0, 0, 0, 0, 0, 0, 0, 0, 0, 0, 0, 0, 0, 0, 0, 0, 0, 0, 0, 0, 0, 0, 0, 0, 0, 0, 0, 0, 0, 0, 0, 0, 0, 0, 0, 0, 0, 0, 0, 0, 0, 0, 0, 0, 0, 0, 0, 0, 0, 0, 0, 0, 0, 0, 0, 0, 0, 0, 0, 0, 0, 0, 0, 
[2024-06-13 12:18:03.326158] [0x0000007f915b79a0] [LogDataTag] [0x00002ff1] [191] 1718295482836884, 0.488863, 0, 0, 0, 0, 0, 0, 0, 0, 0, 0, 0, 0, 1.8445e+13, 0.0831234, -0.184182, -0.31307, 0.998972, -0.00532941, -0.00381525, -0.0448481, -0.00198128, 0.00230568, 0.0011712, -0.00638742, -0.00428339, -0.00146597, -0.0103062, -0.00810077, -0.0896865, 0, 0, 0, 0, 0, 0, 0, 0, 0, 0, 0, 0, 0, 0, 0, 0, 0, 0, 0, 0, 0, 0, 0, 0, 0, 0, 0, 0, 0, 0, 0, 0, 0, 0, 0, 0, 0, 0, 0, 0, 0, 0, 0, 0, 0, 0, 0, 0, 0, 0, 0, 0, 0, 0, 0, 0, 0, 0, 0, 0, 0, 0, 0, 0, 0, 0, 0, 0, 0, 0, 0, 
[2024-06-13 12:18:03.336197] [0x0000007f925b99a0] [LogDataTag] [0x00002ff1] [195] 1718295482836884, 0.498851, 0, 0, 0, 0, 0, 0, 0, 0, 0, 0, 0, 0, 1.8445e+13, 0.0831114, -0.184146, -0.313025, 0.998969, -0.0053281, -0.00381343, -0.0449163, -0.00180091, 0.00239203, 0.0015454, -0.00306339, -0.00404473, -0.00924399, -0.0103032, -0.00809772, -0.0898231, 0, 0, 0, 0, 0, 0, 0, 0, 0, 0, 0, 0, 0, 0, 0, 0, 0, 0, 0, 0, 0, 0, 0, 0, 0, 0, 0, 0, 0, 0, 0, 0, 0, 0, 0, 0, 0, 0, 0, 0, 0, 0, 0, 0, 0, 0, 0, 0, 0, 0, 0, 0, 0, 0, 0, 0, 0, 0, 0, 0, 0, 0, 0, 0, 0, 0, 0, 0, 0, 0, 0, 
[2024-06-13 12:18:03.346161] [0x0000007f925b99a0] [LogDataTag] [0x00002ff1] [200] 1718295482836884, 0.508866, 0, 0, 0, 0, 0, 0, 0, 0, 0, 0, 0, 0, 1.8445e+13, 0.0831114, -0.184146, -0.313025, 0.998969, -0.0053281, -0.00381343, -0.0449163, -0.00180091, 0.00239203, 0.0015454, -0.00306339, -0.00404473, -0.00924399, -0.0103032, -0.00809772, -0.0898231, 0, 0, 0, 0, 0, 0, 0, 0, 0, 0, 0, 0, 0, 0, 0, 0, 0, 0, 0, 0, 0, 0, 0, 0, 0, 0, 0, 0, 0, 0, 0, 0, 0, 0, 0, 0, 0, 0, 0, 0, 0, 0, 0, 0, 0, 0, 0, 0, 0, 0, 0, 0, 0, 0, 0, 0, 0, 0, 0, 0, 0, 0, 0, 0, 0, 0, 0, 0, 0, 0, 0, 
[2024-06-13 12:18:03.356186] [0x0000007f91db89a0] [LogDataTag] [0x00002ff1] [204] 1718295482836884, 0.518852, 0, 0, 0, 0, 0, 0, 0, 0, 0, 0, 0, 0, 1.8445e+13, 0.083102, -0.184102, -0.312985, 0.998967, -0.00531088, -0.00380882, -0.0449601, -0.0018421, 0.00329536, 0.0011256, 0.00248156, 0.00455944, -0.00305164, -0.0102688, -0.00808743, -0.0899109, 0, 0, 0, 0, 0, 0, 0, 0, 0, 0, 0, 0, 0, 0, 0, 0, 0, 0, 0, 0, 0, 0, 0, 0, 0, 0, 0, 0, 0, 0, 0, 0, 0, 0, 0, 0, 0, 0, 0, 0, 0, 0, 0, 0, 0, 0, 0, 0, 0, 0, 0, 0, 0, 0, 0, 0, 0, 0, 0, 0, 0, 0, 0, 0, 0, 0, 0, 0, 0, 0, 0, 
[2024-06-13 12:18:03.366215] [0x0000007f91db89a0] [LogDataTag] [0x00002ff1] [208] 1718295482836884, 0.528872, 0, 0, 0, 0, 0, 0, 0, 0, 0, 0, 0, 0, 1.8445e+13, 0.083102, -0.184102, -0.312985, 0.998967, -0.00531088, -0.00380882, -0.0449601, -0.0018421, 0.00329536, 0.0011256, 0.00248156, 0.00455944, -0.00305164, -0.0102688, -0.00808743, -0.0899109, 0, 0, 0, 0, 0, 0, 0, 0, 0, 0, 0, 0, 0, 0, 0, 0, 0, 0, 0, 0, 0, 0, 0, 0, 0, 0, 0, 0, 0, 0, 0, 0, 0, 0, 0, 0, 0, 0, 0, 0, 0, 0, 0, 0, 0, 0, 0, 0, 0, 0, 0, 0, 0, 0, 0, 0, 0, 0, 0, 0, 0, 0, 0, 0, 0, 0, 0, 0, 0, 0, 0, 
[2024-06-13 12:18:03.376169] [0x0000007f91db89a0] [LogDataTag] [0x00002ff1] [213] 1718295482836884, 0.53885, 0, 0, 0, 0, 0, 0, 0, 0, 0, 0, 0, 0, 1.8445e+13, 0.0830987, -0.184046, -0.312949, 0.99897, -0.0052878, -0.00382692, -0.0449059, -0.00185579, 0.00363292, 0.00130406, 0.00521548, -0.00610243, 0.00882837, -0.0102215, -0.00812095, -0.0898024, 0, 0, 0, 0, 0, 0, 0, 0, 0, 0, 0, 0, 0, 0, 0, 0, 0, 0, 0, 0, 0, 0, 0, 0, 0, 0, 0, 0, 0, 0, 0, 0, 0, 0, 0, 0, 0, 0, 0, 0, 0, 0, 0, 0, 0, 0, 0, 0, 0, 0, 0, 0, 0, 0, 0, 0, 0, 0, 0, 0, 0, 0, 0, 0, 0, 0, 0, 0, 0, 0, 0, 
[2024-06-13 12:18:03.386242] [0x0000007f98d14010] [LogDataTag] [0x00002ff1] [217] 1718295482836884, 0.54888, 0, 0, 0, 0, 0, 0, 0, 0, 0, 0, 0, 0, 1.8445e+13, 0.083098, -0.183992, -0.31292, 0.99897, -0.00528163, -0.0038561, -0.0449087, -0.00170832, 0.00313668, 0.000853241, -0.00104883, -0.00598826, -0.00568572, -0.0102065, -0.00817872, -0.0898078, 0, 0, 0, 0, 0, 0, 0, 0, 0, 0, 0, 0, 0, 0, 0, 0, 0, 0, 0, 0, 0, 0, 0, 0, 0, 0, 0, 0, 0, 0, 0, 0, 0, 0, 0, 0, 0, 0, 0, 0, 0, 0, 0, 0, 0, 0, 0, 0, 0, 0, 0, 0, 0, 0, 0, 0, 0, 0, 0, 0, 0, 0, 0, 0, 0, 0, 0, 0, 0, 0, 0, 
[2024-06-13 12:18:03.396256] [0x0000007f925b99a0] [LogDataTag] [0x00002ff1] [221] 1718295482836884, 0.558888, 0, 0, 0, 0, 0, 0, 0, 0, 0, 0, 0, 0, 1.8445e+13, 0.083098, -0.183992, -0.31292, 0.99897, -0.00528163, -0.0038561, -0.0449087, -0.00170832, 0.00313668, 0.000853241, -0.00104883, -0.00598826, -0.00568572, -0.0102065, -0.00817872, -0.0898078, 0, 0, 0, 0, 0, 0, 0, 0, 0, 0, 0, 0, 0, 0, 0, 0, 0, 0, 0, 0, 0, 0, 0, 0, 0, 0, 0, 0, 0, 0, 0, 0, 0, 0, 0, 0, 0, 0, 0, 0, 0, 0, 0, 0, 0, 0, 0, 0, 0, 0, 0, 0, 0, 0, 0, 0, 0, 0, 0, 0, 0, 0, 0, 0, 0, 0, 0, 0, 0, 0, 0, 
[2024-06-13 12:18:03.406392] [0x0000007f98d14010] [LogDataTag] [0x00002ff1] [226] 1718295482836884, 0.568918, 0, 0, 0, 0, 0, 0, 0, 0, 0, 0, 0, 0, 1.8445e+13, 0.0830972, -0.183968, -0.312906, 0.998968, -0.00529235, -0.00385455, -0.0449518, -0.00174226, 0.00312076, 0.00103993, -0.00587766, 0.00137142, -0.0112204, -0.0102278, -0.00817704, -0.089894, 0, 0, 0, 0, 0, 0, 0, 0, 0, 0, 0, 0, 0, 0, 0, 0, 0, 0, 0, 0, 0, 0, 0, 0, 0, 0, 0, 0, 0, 0, 0, 0, 0, 0, 0, 0, 0, 0, 0, 0, 0, 0, 0, 0, 0, 0, 0, 0, 0, 0, 0, 0, 0, 0, 0, 0, 0, 0, 0, 0, 0, 0, 0, 0, 0, 0, 0, 0, 0, 0, 0, 
[2024-06-13 12:18:03.416184] [0x0000007f925b99a0] [LogDataTag] [0x00002ff1] [230] 1718295482836884, 0.578836, 0, 0, 0, 0, 0, 0, 0, 0, 0, 0, 0, 0, 1.8445e+13, 0.0830965, -0.183917, -0.312883, 0.998965, -0.00529044, -0.00386097, -0.0450046, -0.00187575, 0.00380081, 0.000831222, -0.000293638, -0.00182327, -0.0031635, -0.0102229, -0.00819024, -0.0899997, 0, 0, 0, 0, 0, 0, 0, 0, 0, 0, 0, 0, 0, 0, 0, 0, 0, 0, 0, 0, 0, 0, 0, 0, 0, 0, 0, 0, 0, 0, 0, 0, 0, 0, 0, 0, 0, 0, 0, 0, 0, 0, 0, 0, 0, 0, 0, 0, 0, 0, 0, 0, 0, 0, 0, 0, 0, 0, 0, 0, 0, 0, 0, 0, 0, 0, 0, 0, 0, 0, 0, 
[2024-06-13 12:18:03.426143] [0x0000007f98d14010] [LogDataTag] [0x00002ff1] [234] 1718295482836884, 0.588784, 0, 0, 0, 0, 0, 0, 0, 0, 0, 0, 0, 0, 1.8445e+13, 0.083096, -0.183888, -0.312872, 0.998966, -0.00527872, -0.00385004, -0.0449873, -0.00194041, 0.00412183, 0.00109832, 0.00428154, 0.0029097, 0.00280449, -0.0102006, -0.00816717, -0.0899653, 0, 0, 0, 0, 0, 0, 0, 0, 0, 0, 0, 0, 0, 0, 0, 0, 0, 0, 0, 0, 0, 0, 0, 0, 0, 0, 0, 0, 0, 0, 0, 0, 0, 0, 0, 0, 0, 0, 0, 0, 0, 0, 0, 0, 0, 0, 0, 0, 0, 0, 0, 0, 0, 0, 0, 0, 0, 0, 0, 0, 0, 0, 0, 0, 0, 0, 0, 0, 0, 0, 0, 
[2024-06-13 12:18:03.436340] [0x0000007f98d14010] [LogDataTag] [0x00002ff1] [239] 1718295482836884, 0.59888, 0, 0, 0, 0, 0, 0, 0, 0, 0, 0, 0, 0, 1.8445e+13, 0.083096, -0.183888, -0.312872, 0.998966, -0.00527872, -0.00385004, -0.0449873, -0.00194041, 0.00412183, 0.00109832, 0.00428154, 0.0029097, 0.00280449, -0.0102006, -0.00816717, -0.0899653, 0, 0, 0, 0, 0, 0, 0, 0, 0, 0, 0, 0, 0, 0, 0, 0, 0, 0, 0, 0, 0, 0, 0, 0, 0, 0, 0, 0, 0, 0, 0, 0, 0, 0, 0, 0, 0, 0, 0, 0, 0, 0, 0, 0, 0, 0, 0, 0, 0, 0, 0, 0, 0, 0, 0, 0, 0, 0, 0, 0, 0, 0, 0, 0, 0, 0, 0, 0, 0, 0, 0, 
[2024-06-13 12:18:03.446241] [0x0000007f91db89a0] [LogDataTag] [0x00002ff1] [243] 1718295482836884, 0.608866, 0, 0, 0, 0, 0, 0, 0, 0, 0, 0, 0, 0, 1.8445e+13, 0.0830957, -0.183821, -0.312851, 0.998969, -0.0052741, -0.00385148, -0.0449256, -0.00183353, 0.00455156, 0.00105491, 0.00781447, -0.00504055, 0.00796216, -0.0101918, -0.00816899, -0.0898417, 0, 0, 0, 0, 0, 0, 0, 0, 0, 0, 0, 0, 0, 0, 0, 0, 0, 0, 0, 0, 0, 0, 0, 0, 0, 0, 0, 0, 0, 0, 0, 0, 0, 0, 0, 0, 0, 0, 0, 0, 0, 0, 0, 0, 0, 0, 0, 0, 0, 0, 0, 0, 0, 0, 0, 0, 0, 0, 0, 0, 0, 0, 0, 0, 0, 0, 0, 0, 0, 0, 0, 
[2024-06-13 12:18:03.456191] [0x0000007f98d14010] [LogDataTag] [0x00002ff1] [248] 1718295482836884, 0.618875, 0, 0, 0, 0, 0, 0, 0, 0, 0, 0, 0, 0, 1.8445e+13, 0.0830982, -0.18379, -0.31284, 0.99897, -0.005275, -0.00385296, -0.0449058, -0.00184542, 0.00444229, 0.00116819, 0.00102516, 0.000606307, 0.00135712, -0.0101936, -0.00817183, -0.089802, 0, 0, 0, 0, 0, 0, 0, 0, 0, 0, 0, 0, 0, 0, 0, 0, 0, 0, 0, 0, 0, 0, 0, 0, 0, 0, 0, 0, 0, 0, 0, 0, 0, 0, 0, 0, 0, 0, 0, 0, 0, 0, 0, 0, 0, 0, 0, 0, 0, 0, 0, 0, 0, 0, 0, 0, 0, 0, 0, 0, 0, 0, 0, 0, 0, 0, 0, 0, 0, 0, 0, 
[2024-06-13 12:18:03.466229] [0x0000007f98d14010] [LogDataTag] [0x00002ff1] [252] 1718295482836884, 0.628876, 0, 0, 0, 0, 0, 0, 0, 0, 0, 0, 0, 0, 1.8445e+13, 0.0830982, -0.18379, -0.31284, 0.99897, -0.005275, -0.00385296, -0.0449058, -0.00184542, 0.00444229, 0.00116819, 0.00102516, 0.000606307, 0.00135712, -0.0101936, -0.00817183, -0.089802, 0, 0, 0, 0, 0, 0, 0, 0, 0, 0, 0, 0, 0, 0, 0, 0, 0, 0, 0, 0, 0, 0, 0, 0, 0, 0, 0, 0, 0, 0, 0, 0, 0, 0, 0, 0, 0, 0, 0, 0, 0, 0, 0, 0, 0, 0, 0, 0, 0, 0, 0, 0, 0, 0, 0, 0, 0, 0, 0, 0, 0, 0, 0, 0, 0, 0, 0, 0, 0, 0, 0, 
[2024-06-13 12:18:03.476255] [0x0000007f91db89a0] [LogDataTag] [0x00002ff1] [256] 1718295482836884, 0.638898, 0, 0, 0, 0, 0, 0, 0, 0, 0, 0, 0, 0, 1.8445e+13, 0.0831071, -0.183701, -0.312808, 0.998968, -0.0052762, -0.00387001, -0.0449578, -0.00196876, 0.00454972, 0.0013917, -0.00201222, -0.004549, -0.00283232, -0.010194, -0.00820652, -0.089906, 0, 0, 0, 0, 0, 0, 0, 0, 0, 0, 0, 0, 0, 0, 0, 0, 0, 0, 0, 0, 0, 0, 0, 0, 0, 0, 0, 0, 0, 0, 0, 0, 0, 0, 0, 0, 0, 0, 0, 0, 0, 0, 0, 0, 0, 0, 0, 0, 0, 0, 0, 0, 0, 0, 0, 0, 0, 0, 0, 0, 0, 0, 0, 0, 0, 0, 0, 0, 0, 0, 0, 
[2024-06-13 12:18:03.486262] [0x0000007f91db89a0] [LogDataTag] [0x00002ff1] [261] 1718295482836884, 0.64891, 0, 0, 0, 0, 0, 0, 0, 0, 0, 0, 0, 0, 1.8445e+13, 0.0831071, -0.183701, -0.312808, 0.998968, -0.0052762, -0.00387001, -0.0449578, -0.00196876, 0.00454972, 0.0013917, -0.00201222, -0.004549, -0.00283232, -0.010194, -0.00820652, -0.089906, 0, 0, 0, 0, 0, 0, 0, 0, 0, 0, 0, 0, 0, 0, 0, 0, 0, 0, 0, 0, 0, 0, 0, 0, 0, 0, 0, 0, 0, 0, 0, 0, 0, 0, 0, 0, 0, 0, 0, 0, 0, 0, 0, 0, 0, 0, 0, 0, 0, 0, 0, 0, 0, 0, 0, 0, 0, 0, 0, 0, 0, 0, 0, 0, 0, 0, 0, 0, 0, 0, 0, 
[2024-06-13 12:18:03.496236] [0x0000007f925b99a0] [LogDataTag] [0x00002ff1] [265] 1718295482836884, 0.658865, 0, 0, 0, 0, 0, 0, 0, 0, 0, 0, 0, 0, 1.8445e+13, 0.0831086, -0.18367, -0.312797, 0.998967, -0.00528966, -0.00385036, -0.0449664, -0.0019411, 0.00483089, 0.00142163, -0.00612103, 0.00253954, 0.00213784, -0.0102226, -0.00816857, -0.0899232, 0, 0, 0, 0, 0, 0, 0, 0, 0, 0, 0, 0, 0, 0, 0, 0, 0, 0, 0, 0, 0, 0, 0, 0, 0, 0, 0, 0, 0, 0, 0, 0, 0, 0, 0, 0, 0, 0, 0, 0, 0, 0, 0, 0, 0, 0, 0, 0, 0, 0, 0, 0, 0, 0, 0, 0, 0, 0, 0, 0, 0, 0, 0, 0, 0, 0, 0, 0, 0, 0, 0, 
[2024-06-13 12:18:03.506163] [0x0000007f98d14010] [LogDataTag] [0x00002ff1] [269] 1718295482836884, 0.668838, 0, 0, 0, 0, 0, 0, 0, 0, 0, 0, 0, 0, 1.8445e+13, 0.083114, -0.183607, -0.312778, 0.998969, -0.00527253, -0.00382543, -0.044928, -0.00183328, 0.00510812, 0.00143967, -0.000766487, 0.000880735, 0.00857205, -0.010191, -0.00811682, -0.0898468, 0, 0, 0, 0, 0, 0, 0, 0, 0, 0, 0, 0, 0, 0, 0, 0, 0, 0, 0, 0, 0, 0, 0, 0, 0, 0, 0, 0, 0, 0, 0, 0, 0, 0, 0, 0, 0, 0, 0, 0, 0, 0, 0, 0, 0, 0, 0, 0, 0, 0, 0, 0, 0, 0, 0, 0, 0, 0, 0, 0, 0, 0, 0, 0, 0, 0, 0, 0, 0, 0, 0, 
[2024-06-13 12:18:03.516176] [0x0000007f98d14010] [LogDataTag] [0x00002ff1] [274] 1718295482836884, 0.678864, 0, 0, 0, 0, 0, 0, 0, 0, 0, 0, 0, 0, 1.8445e+13, 0.083114, -0.183607, -0.312778, 0.998969, -0.00527253, -0.00382543, -0.044928, -0.00183328, 0.00510812, 0.00143967, -0.000766487, 0.000880735, 0.00857205, -0.010191, -0.00811682, -0.0898468, 0, 0, 0, 0, 0, 0, 0, 0, 0, 0, 0, 0, 0, 0, 0, 0, 0, 0, 0, 0, 0, 0, 0, 0, 0, 0, 0, 0, 0, 0, 0, 0, 0, 0, 0, 0, 0, 0, 0, 0, 0, 0, 0, 0, 0, 0, 0, 0, 0, 0, 0, 0, 0, 0, 0, 0, 0, 0, 0, 0, 0, 0, 0, 0, 0, 0, 0, 0, 0, 0, 0, 
[2024-06-13 12:18:03.526228] [0x0000007f925b99a0] [LogDataTag] [0x00002ff1] [278] 1718295482836884, 0.688848, 0, 0, 0, 0, 0, 0, 0, 0, 0, 0, 0, 0, 1.8445e+13, 0.0831191, -0.183577, -0.312769, 0.998969, -0.00528548, -0.0038239, -0.0449255, -0.00181771, 0.00492873, 0.00140866, -0.00625668, 0.000962965, 0.000157491, -0.010217, -0.00811491, -0.0898417, 0, 0, 0, 0, 0, 0, 0, 0, 0, 0, 0, 0, 0, 0, 0, 0, 0, 0, 0, 0, 0, 0, 0, 0, 0, 0, 0, 0, 0, 0, 0, 0, 0, 0, 0, 0, 0, 0, 0, 0, 0, 0, 0, 0, 0, 0, 0, 0, 0, 0, 0, 0, 0, 0, 0, 0, 0, 0, 0, 0, 0, 0, 0, 0, 0, 0, 0, 0, 0, 0, 0, 
[2024-06-13 12:18:03.536222] [0x0000007f91db89a0] [LogDataTag] [0x00002ff1] [282] 1718295482836884, 0.698872, 0, 0, 0, 0, 0, 0, 0, 0, 0, 0, 0, 0, 1.8445e+13, 0.0831259, -0.18355, -0.312761, 0.99897, -0.00527062, -0.00383895, -0.0448957, -0.00152742, 0.00476017, 0.00147396, 0.00408654, 0.000990534, 0.00780783, -0.0101862, -0.00814335, -0.0897821, 0, 0, 0, 0, 0, 0, 0, 0, 0, 0, 0, 0, 0, 0, 0, 0, 0, 0, 0, 0, 0, 0, 0, 0, 0, 0, 0, 0, 0, 0, 0, 0, 0, 0, 0, 0, 0, 0, 0, 0, 0, 0, 0, 0, 0, 0, 0, 0, 0, 0, 0, 0, 0, 0, 0, 0, 0, 0, 0, 0, 0, 0, 0, 0, 0, 0, 0, 0, 0, 0, 0, 
[2024-06-13 12:18:03.546243] [0x0000007f915b79a0] [LogDataTag] [0x00002ff1] [287] 1718295482836884, 0.708864, 0, 0, 0, 0, 0, 0, 0, 0, 0, 0, 0, 0, 1.8445e+13, 0.0831329, -0.183523, -0.312751, 0.99897, -0.00527426, -0.00383557, -0.0449105, -0.00143617, 0.00465211, 0.00162252, -0.00429556, 0.000952899, -0.000918418, -0.0101936, -0.00813707, -0.0898117, 0, 0, 0, 0, 0, 0, 0, 0, 0, 0, 0, 0, 0, 0, 0, 0, 0, 0, 0, 0, 0, 0, 0, 0, 0, 0, 0, 0, 0, 0, 0, 0, 0, 0, 0, 0, 0, 0, 0, 0, 0, 0, 0, 0, 0, 0, 0, 0, 0, 0, 0, 0, 0, 0, 0, 0, 0, 0, 0, 0, 0, 0, 0, 0, 0, 0, 0, 0, 0, 0, 0, 
[2024-06-13 12:18:03.556590] [0x0000007f91db89a0] [LogDataTag] [0x00002ff1] [292] 1718295482836884, 0.719267, 0, 0, 0, 0, 0, 0, 0, 0, 0, 0, 0, 0, 1.8445e+13, 0.0831503, -0.183475, -0.312734, 0.998968, -0.00527866, -0.0038469, -0.0449393, -0.00133555, 0.00479891, 0.00165367, 0.00173822, -0.000919203, 0.000909961, -0.0102012, -0.00816039, -0.0898692, 0, 0, 0, 0, 0, 0, 0, 0, 0, 0, 0, 0, 0, 0, 0, 0, 0, 0, 0, 0, 0, 0, 0, 0, 0, 0, 0, 0, 0, 0, 0, 0, 0, 0, 0, 0, 0, 0, 0, 0, 0, 0, 0, 0, 0, 0, 0, 0, 0, 0, 0, 0, 0, 0, 0, 0, 0, 0, 0, 0, 0, 0, 0, 0, 0, 0, 0, 0, 0, 0, 0, 
[2024-06-13 12:18:03.566162] [0x0000007f915b79a0] [LogDataTag] [0x00002ff1] [296] 1718295482836884, 0.728808, 0, 0, 0, 0, 0, 0, 0, 0, 0, 0, 0, 0, 1.8445e+13, 0.0831596, -0.183452, -0.312726, 0.998968, -0.00528521, -0.00385051, -0.0449455, -0.00130115, 0.00480699, 0.00146173, -0.0018444, 0.0049429, 0.00404378, -0.0102139, -0.00816826, -0.0898814, 0, 0, 0, 0, 0, 0, 0, 0, 0, 0, 0, 0, 0, 0, 0, 0, 0, 0, 0, 0, 0, 0, 0, 0, 0, 0, 0, 0, 0, 0, 0, 0, 0, 0, 0, 0, 0, 0, 0, 0, 0, 0, 0, 0, 0, 0, 0, 0, 0, 0, 0, 0, 0, 0, 0, 0, 0, 0, 0, 0, 0, 0, 0, 0, 0, 0, 0, 0, 0, 0, 0, 
[2024-06-13 12:18:03.576679] [0x0000007f925b99a0] [LogDataTag] [0x00002ff1] [300] 1718295482836884, 0.738891, 0, 0, 0, 0, 0, 0, 0, 0, 0, 0, 0, 0, 1.8445e+13, 0.083169, -0.183428, -0.312719, 0.998968, -0.00527096, -0.00385925, -0.0449507, -0.00128789, 0.00477375, 0.00147701, 0.00708861, -0.00304904, -0.000106808, -0.0101846, -0.00818448, -0.0898919, 0, 0, 0, 0, 0, 0, 0, 0, 0, 0, 0, 0, 0, 0, 0, 0, 0, 0, 0, 0, 0, 0, 0, 0, 0, 0, 0, 0, 0, 0, 0, 0, 0, 0, 0, 0, 0, 0, 0, 0, 0, 0, 0, 0, 0, 0, 0, 0, 0, 0, 0, 0, 0, 0, 0, 0, 0, 0, 0, 0, 0, 0, 0, 0, 0, 0, 0, 0, 0, 0, 0, 
[2024-06-13 12:18:03.586173] [0x0000007f98d14010] [LogDataTag] [0x00002ff1] [305] 1718295482836884, 0.748854, 0, 0, 0, 0, 0, 0, 0, 0, 0, 0, 0, 0, 1.8445e+13, 0.0831885, -0.183384, -0.312708, 0.998969, -0.00527393, -0.00386084, -0.0449287, -0.000885674, 0.00451387, 0.00115888, -0.00162204, -0.000797885, 0.000457573, -0.0101906, -0.00818771, -0.0898479, 0, 0, 0, 0, 0, 0, 0, 0, 0, 0, 0, 0, 0, 0, 0, 0, 0, 0, 0, 0, 0, 0, 0, 0, 0, 0, 0, 0, 0, 0, 0, 0, 0, 0, 0, 0, 0, 0, 0, 0, 0, 0, 0, 0, 0, 0, 0, 0, 0, 0, 0, 0, 0, 0, 0, 0, 0, 0, 0, 0, 0, 0, 0, 0, 0, 0, 0, 0, 0, 0, 0, 
[2024-06-13 12:18:03.596236] [0x0000007f98d14010] [LogDataTag] [0x00002ff1] [309] 1718295482836884, 0.758867, 0, 0, 0, 0, 0, 0, 0, 0, 0, 0, 0, 0, 1.8445e+13, 0.0831997, -0.183365, -0.312704, 0.998969, -0.00526158, -0.00388134, -0.0449299, -0.000916719, 0.00435364, 0.00130588, 0.00259243, -0.00322815, -0.00114639, -0.0101641, -0.00822758, -0.0898502, 0, 0, 0, 0, 0, 0, 0, 0, 0, 0, 0, 0, 0, 0, 0, 0, 0, 0, 0, 0, 0, 0, 0, 0, 0, 0, 0, 0, 0, 0, 0, 0, 0, 0, 0, 0, 0, 0, 0, 0, 0, 0, 0, 0, 0, 0, 0, 0, 0, 0, 0, 0, 0, 0, 0, 0, 0, 0, 0, 0, 0, 0, 0, 0, 0, 0, 0, 0, 0, 0, 0, 
[2024-06-13 12:18:03.606236] [0x0000007f98d14010] [LogDataTag] [0x00002ff1] [313] 1718295482836884, 0.768876, 0, 0, 0, 0, 0, 0, 0, 0, 0, 0, 0, 0, 1.8445e+13, 0.0831997, -0.183365, -0.312704, 0.998969, -0.00526158, -0.00388134, -0.0449299, -0.000916719, 0.00435364, 0.00130588, 0.00259243, -0.00322815, -0.00114639, -0.0101641, -0.00822758, -0.0898502, 0, 0, 0, 0, 0, 0, 0, 0, 0, 0, 0, 0, 0, 0, 0, 0, 0, 0, 0, 0, 0, 0, 0, 0, 0, 0, 0, 0, 0, 0, 0, 0, 0, 0, 0, 0, 0, 0, 0, 0, 0, 0, 0, 0, 0, 0, 0, 0, 0, 0, 0, 0, 0, 0, 0, 0, 0, 0, 0, 0, 0, 0, 0, 0, 0, 0, 0, 0, 0, 0, 0, 
[2024-06-13 12:18:03.616223] [0x0000007f91db89a0] [LogDataTag] [0x00002ff1] [317] 1718295482836884, 0.778873, 0, 0, 0, 0, 0, 0, 0, 0, 0, 0, 0, 0, 1.8445e+13, 0.0832113, -0.183348, -0.312699, 0.998969, -0.0052536, -0.00388044, -0.0449369, -0.00079558, 0.00425129, 0.0011451, 0.00440398, -6.28984e-05, -1.8239e-05, -0.0101481, -0.00822513, -0.0898643, 0, 0, 0, 0, 0, 0, 0, 0, 0, 0, 0, 0, 0, 0, 0, 0, 0, 0, 0, 0, 0, 0, 0, 0, 0, 0, 0, 0, 0, 0, 0, 0, 0, 0, 0, 0, 0, 0, 0, 0, 0, 0, 0, 0, 0, 0, 0, 0, 0, 0, 0, 0, 0, 0, 0, 0, 0, 0, 0, 0, 0, 0, 0, 0, 0, 0, 0, 0, 0, 0, 0, 
[2024-06-13 12:18:03.626181] [0x0000007f915b79a0] [LogDataTag] [0x00002ff1] [322] 1718295482836884, 0.788845, 0, 0, 0, 0, 0, 0, 0, 0, 0, 0, 0, 0, 1.8445e+13, 0.0832247, -0.183334, -0.312696, 0.998967, -0.0052415, -0.00388078, -0.0449647, -0.000665699, 0.00427738, 0.00125473, 0.00417192, -0.00106985, 0.00251069, -0.0101237, -0.008225, -0.0899201, 0, 0, 0, 0, 0, 0, 0, 0, 0, 0, 0, 0, 0, 0, 0, 0, 0, 0, 0, 0, 0, 0, 0, 0, 0, 0, 0, 0, 0, 0, 0, 0, 0, 0, 0, 0, 0, 0, 0, 0, 0, 0, 0, 0, 0, 0, 0, 0, 0, 0, 0, 0, 0, 0, 0, 0, 0, 0, 0, 0, 0, 0, 0, 0, 0, 0, 0, 0, 0, 0, 0, 
[2024-06-13 12:18:03.636160] [0x0000007f925b99a0] [LogDataTag] [0x00002ff1] [326] 1718295482836884, 0.798829, 0, 0, 0, 0, 0, 0, 0, 0, 0, 0, 0, 0, 1.8445e+13, 0.083239, -0.183322, -0.312691, 0.998967, -0.00525226, -0.00387896, -0.0449732, -0.000577856, 0.00417705, 0.00153079, 0.000690102, -0.00145099, -0.00188497, -0.0101453, -0.00822241, -0.089937, 0, 0, 0, 0, 0, 0, 0, 0, 0, 0, 0, 0, 0, 0, 0, 0, 0, 0, 0, 0, 0, 0, 0, 0, 0, 0, 0, 0, 0, 0, 0, 0, 0, 0, 0, 0, 0, 0, 0, 0, 0, 0, 0, 0, 0, 0, 0, 0, 0, 0, 0, 0, 0, 0, 0, 0, 0, 0, 0, 0, 0, 0, 0, 0, 0, 0, 0, 0, 0, 0, 0, 
[2024-06-13 12:18:03.646250] [0x0000007f915b79a0] [LogDataTag] [0x00002ff1] [330] 1718295482836884, 0.808879, 0, 0, 0, 0, 0, 0, 0, 0, 0, 0, 0, 0, 1.8445e+13, 0.0832691, -0.183296, -0.312679, 0.998967, -0.00527076, -0.00390527, -0.0449606, -8.69372e-05, 0.00410309, 0.00149793, -0.00498064, -0.00825069, 0.0050058, -0.01018, -0.00827652, -0.0899112, 0, 0, 0, 0, 0, 0, 0, 0, 0, 0, 0, 0, 0, 0, 0, 0, 0, 0, 0, 0, 0, 0, 0, 0, 0, 0, 0, 0, 0, 0, 0, 0, 0, 0, 0, 0, 0, 0, 0, 0, 0, 0, 0, 0, 0, 0, 0, 0, 0, 0, 0, 0, 0, 0, 0, 0, 0, 0, 0, 0, 0, 0, 0, 0, 0, 0, 0, 0, 0, 0, 0, 
[2024-06-13 12:18:03.656221] [0x0000007f915b79a0] [LogDataTag] [0x00002ff1] [335] 1718295482836884, 0.818869, 0, 0, 0, 0, 0, 0, 0, 0, 0, 0, 0, 0, 1.8445e+13, 0.0832691, -0.183296, -0.312679, 0.998967, -0.00527076, -0.00390527, -0.0449606, -8.69372e-05, 0.00410309, 0.00149793, -0.00498064, -0.00825069, 0.0050058, -0.01018, -0.00827652, -0.0899112, 0, 0, 0, 0, 0, 0, 0, 0, 0, 0, 0, 0, 0, 0, 0, 0, 0, 0, 0, 0, 0, 0, 0, 0, 0, 0, 0, 0, 0, 0, 0, 0, 0, 0, 0, 0, 0, 0, 0, 0, 0, 0, 0, 0, 0, 0, 0, 0, 0, 0, 0, 0, 0, 0, 0, 0, 0, 0, 0, 0, 0, 0, 0, 0, 0, 0, 0, 0, 0, 0, 0, 
[2024-06-13 12:18:03.666220] [0x0000007f91db89a0] [LogDataTag] [0x00002ff1] [339] 1718295482836884, 0.828858, 0, 0, 0, 0, 0, 0, 0, 0, 0, 0, 0, 0, 1.8445e+13, 0.0833068, -0.183281, -0.312669, 0.998968, -0.00527634, -0.00389129, -0.0449541, 0.000213474, 0.00389992, 0.00166128, -0.00198686, 0.00525136, 0.00327352, -0.0101924, -0.00824902, -0.0898985, 0, 0, 0, 0, 0, 0, 0, 0, 0, 0, 0, 0, 0, 0, 0, 0, 0, 0, 0, 0, 0, 0, 0, 0, 0, 0, 0, 0, 0, 0, 0, 0, 0, 0, 0, 0, 0, 0, 0, 0, 0, 0, 0, 0, 0, 0, 0, 0, 0, 0, 0, 0, 0, 0, 0, 0, 0, 0, 0, 0, 0, 0, 0, 0, 0, 0, 0, 0, 0, 0, 0, 
[2024-06-13 12:18:03.676568] [0x0000007f91db89a0] [LogDataTag] [0x00002ff1] [344] 1718295482836884, 0.839257, 0, 0, 0, 0, 0, 0, 0, 0, 0, 0, 0, 0, 1.8445e+13, 0.0833068, -0.183281, -0.312669, 0.998968, -0.00527634, -0.00389129, -0.0449541, 0.000213474, 0.00389992, 0.00166128, -0.00198686, 0.00525136, 0.00327352, -0.0101924, -0.00824902, -0.0898985, 0, 0, 0, 0, 0, 0, 0, 0, 0, 0, 0, 0, 0, 0, 0, 0, 0, 0, 0, 0, 0, 0, 0, 0, 0, 0, 0, 0, 0, 0, 0, 0, 0, 0, 0, 0, 0, 0, 0, 0, 0, 0, 0, 0, 0, 0, 0, 0, 0, 0, 0, 0, 0, 0, 0, 0, 0, 0, 0, 0, 0, 0, 0, 0, 0, 0, 0, 0, 0, 0, 0, 
[2024-06-13 12:18:03.686216] [0x0000007f98d14010] [LogDataTag] [0x00002ff1] [348] 1718295482836884, 0.84887, 0, 0, 0, 0, 0, 0, 0, 0, 0, 0, 0, 0, 1.8445e+13, 0.083349, -0.18327, -0.312655, 0.998966, -0.00529627, -0.00390394, -0.0449887, 0.000446641, 0.00373212, 0.00171358, 0.00176158, 0.00892975, -0.000620666, -0.0102309, -0.00827644, -0.0899673, 0, 0, 0, 0, 0, 0, 0, 0, 0, 0, 0, 0, 0, 0, 0, 0, 0, 0, 0, 0, 0, 0, 0, 0, 0, 0, 0, 0, 0, 0, 0, 0, 0, 0, 0, 0, 0, 0, 0, 0, 0, 0, 0, 0, 0, 0, 0, 0, 0, 0, 0, 0, 0, 0, 0, 0, 0, 0, 0, 0, 0, 0, 0, 0, 0, 0, 0, 0, 0, 0, 0, 
[2024-06-13 12:18:03.696235] [0x0000007f915b79a0] [LogDataTag] [0x00002ff1] [352] 1718295482836884, 0.858894, 0, 0, 0, 0, 0, 0, 0, 0, 0, 0, 0, 0, 1.8445e+13, 0.0833693, -0.183265, -0.312649, 0.998965, -0.00530285, -0.00391567, -0.0449986, 0.000424259, 0.00363998, 0.00143184, -0.000778122, -0.000912303, -0.00373158, -0.0102429, -0.00830057, -0.0899871, 0, 0, 0, 0, 0, 0, 0, 0, 0, 0, 0, 0, 0, 0, 0, 0, 0, 0, 0, 0, 0, 0, 0, 0, 0, 0, 0, 0, 0, 0, 0, 0, 0, 0, 0, 0, 0, 0, 0, 0, 0, 0, 0, 0, 0, 0, 0, 0, 0, 0, 0, 0, 0, 0, 0, 0, 0, 0, 0, 0, 0, 0, 0, 0, 0, 0, 0, 0, 0, 0, 0, 
[2024-06-13 12:18:03.706194] [0x0000007f925b99a0] [LogDataTag] [0x00002ff1] [357] 1718295482836884, 0.868842, 0, 0, 0, 0, 0, 0, 0, 0, 0, 0, 0, 0, 1.8445e+13, 0.0833911, -0.183263, -0.312647, 0.998965, -0.00530758, -0.00391875, -0.0450058, 0.000658312, 0.00362844, 0.00113306, -0.000580144, 0.00494821, 0.00389248, -0.010252, -0.00830723, -0.0900014, 0, 0, 0, 0, 0, 0, 0, 0, 0, 0, 0, 0, 0, 0, 0, 0, 0, 0, 0, 0, 0, 0, 0, 0, 0, 0, 0, 0, 0, 0, 0, 0, 0, 0, 0, 0, 0, 0, 0, 0, 0, 0, 0, 0, 0, 0, 0, 0, 0, 0, 0, 0, 0, 0, 0, 0, 0, 0, 0, 0, 0, 0, 0, 0, 0, 0, 0, 0, 0, 0, 0, 
[2024-06-13 12:18:03.716469] [0x0000007f91db89a0] [LogDataTag] [0x00002ff1] [362] 1718295482836884, 0.879151, 0, 0, 0, 0, 0, 0, 0, 0, 0, 0, 0, 0, 1.8445e+13, 0.0834139, -0.183264, -0.312646, 0.998964, -0.00533071, -0.00391037, -0.0450284, 0.000631817, 0.00347557, 0.00122112, -0.00499449, 0.00708712, -0.00897825, -0.0102988, -0.00829279, -0.0900465, 0, 0, 0, 0, 0, 0, 0, 0, 0, 0, 0, 0, 0, 0, 0, 0, 0, 0, 0, 0, 0, 0, 0, 0, 0, 0, 0, 0, 0, 0, 0, 0, 0, 0, 0, 0, 0, 0, 0, 0, 0, 0, 0, 0, 0, 0, 0, 0, 0, 0, 0, 0, 0, 0, 0, 0, 0, 0, 0, 0, 0, 0, 0, 0, 0, 0, 0, 0, 0, 0, 0, 
[2024-06-13 12:18:03.726505] [0x0000007f98d14010] [LogDataTag] [0x00002ff1] [366] 1718295482836884, 0.889166, 0, 0, 0, 0, 0, 0, 0, 0, 0, 0, 0, 0, 1.8445e+13, 0.0834364, -0.183268, -0.312644, 0.998965, -0.00533372, -0.00391433, -0.045001, 0.000625977, 0.00333175, 0.00126092, 0.00630125, -0.000223935, 0.00379668, -0.0103046, -0.00830071, -0.0899916, 0, 0, 0, 0, 0, 0, 0, 0, 0, 0, 0, 0, 0, 0, 0, 0, 0, 0, 0, 0, 0, 0, 0, 0, 0, 0, 0, 0, 0, 0, 0, 0, 0, 0, 0, 0, 0, 0, 0, 0, 0, 0, 0, 0, 0, 0, 0, 0, 0, 0, 0, 0, 0, 0, 0, 0, 0, 0, 0, 0, 0, 0, 0, 0, 0, 0, 0, 0, 0, 0, 0, 
[2024-06-13 12:18:03.736672] [0x0000007f915b79a0] [LogDataTag] [0x00002ff1] [370] 1718295482836884, 0.898885, 0, 0, 0, 0, 0, 0, 0, 0, 0, 0, 0, 0, 1.8445e+13, 0.0834582, -0.183272, -0.312643, 0.998966, -0.005331, -0.00391293, -0.0449879, 0.000527892, 0.00324274, 0.00115201, 0.00132289, -0.00617904, 0.00476528, -0.0102994, -0.00829751, -0.0899655, 0, 0, 0, 0, 0, 0, 0, 0, 0, 0, 0, 0, 0, 0, 0, 0, 0, 0, 0, 0, 0, 0, 0, 0, 0, 0, 0, 0, 0, 0, 0, 0, 0, 0, 0, 0, 0, 0, 0, 0, 0, 0, 0, 0, 0, 0, 0, 0, 0, 0, 0, 0, 0, 0, 0, 0, 0, 0, 0, 0, 0, 0, 0, 0, 0, 0, 0, 0, 0, 0, 0, 
[2024-06-13 12:18:03.746213] [0x0000007f91db89a0] [LogDataTag] [0x00002ff1] [375] 1718295482836884, 0.908884, 0, 0, 0, 0, 0, 0, 0, 0, 0, 0, 0, 0, 1.8445e+13, 0.0834986, -0.183286, -0.312646, 0.998966, -0.00533929, -0.00393182, -0.044986, 0.00034098, 0.0031041, 0.00104367, 0.000951541, -0.00310435, -0.00172049, -0.0103143, -0.008336, -0.0899613, 0, 0, 0, 0, 0, 0, 0, 0, 0, 0, 0, 0, 0, 0, 0, 0, 0, 0, 0, 0, 0, 0, 0, 0, 0, 0, 0, 0, 0, 0, 0, 0, 0, 0, 0, 0, 0, 0, 0, 0, 0, 0, 0, 0, 0, 0, 0, 0, 0, 0, 0, 0, 0, 0, 0, 0, 0, 0, 0, 0, 0, 0, 0, 0, 0, 0, 0, 0, 0, 0, 0, 
[2024-06-13 12:18:03.756221] [0x0000007f91db89a0] [LogDataTag] [0x00002ff1] [379] 1718295482836884, 0.918872, 0, 0, 0, 0, 0, 0, 0, 0, 0, 0, 0, 0, 1.8445e+13, 0.0834986, -0.183286, -0.312646, 0.998966, -0.00533929, -0.00393182, -0.044986, 0.00034098, 0.0031041, 0.00104367, 0.000951541, -0.00310435, -0.00172049, -0.0103143, -0.008336, -0.0899613, 0, 0, 0, 0, 0, 0, 0, 0, 0, 0, 0, 0, 0, 0, 0, 0, 0, 0, 0, 0, 0, 0, 0, 0, 0, 0, 0, 0, 0, 0, 0, 0, 0, 0, 0, 0, 0, 0, 0, 0, 0, 0, 0, 0, 0, 0, 0, 0, 0, 0, 0, 0, 0, 0, 0, 0, 0, 0, 0, 0, 0, 0, 0, 0, 0, 0, 0, 0, 0, 0, 0, 
[2024-06-13 12:18:03.766161] [0x0000007f98d14010] [LogDataTag] [0x00002ff1] [384] 1718295482836884, 0.928832, 0, 0, 0, 0, 0, 0, 0, 0, 0, 0, 0, 0, 1.8445e+13, 0.0835539, -0.183315, -0.312647, 0.998965, -0.00536562, -0.00395193, -0.0450008, 0.000419624, 0.00286066, 0.00132219, -0.00386635, -0.00233625, 0.00119251, -0.010365, -0.00837868, -0.0899905, 0, 0, 0, 0, 0, 0, 0, 0, 0, 0, 0, 0, 0, 0, 0, 0, 0, 0, 0, 0, 0, 0, 0, 0, 0, 0, 0, 0, 0, 0, 0, 0, 0, 0, 0, 0, 0, 0, 0, 0, 0, 0, 0, 0, 0, 0, 0, 0, 0, 0, 0, 0, 0, 0, 0, 0, 0, 0, 0, 0, 0, 0, 0, 0, 0, 0, 0, 0, 0, 0, 0, 
[2024-06-13 12:18:03.776217] [0x0000007f91db89a0] [LogDataTag] [0x00002ff1] [388] 1718295482836884, 0.938879, 0, 0, 0, 0, 0, 0, 0, 0, 0, 0, 0, 0, 1.8445e+13, 0.0835713, -0.183327, -0.312647, 0.998965, -0.00536689, -0.00395466, -0.0450007, 0.000381137, 0.00268171, 0.00109119, 0.00126342, -0.0113659, 0.00447981, -0.0103673, -0.00838425, -0.0899904, 0, 0, 0, 0, 0, 0, 0, 0, 0, 0, 0, 0, 0, 0, 0, 0, 0, 0, 0, 0, 0, 0, 0, 0, 0, 0, 0, 0, 0, 0, 0, 0, 0, 0, 0, 0, 0, 0, 0, 0, 0, 0, 0, 0, 0, 0, 0, 0, 0, 0, 0, 0, 0, 0, 0, 0, 0, 0, 0, 0, 0, 0, 0, 0, 0, 0, 0, 0, 0, 0, 0, 
[2024-06-13 12:18:03.786179] [0x0000007f91db89a0] [LogDataTag] [0x00002ff1] [393] 1718295482836884, 0.948872, 0, 0, 0, 0, 0, 0, 0, 0, 0, 0, 0, 0, 1.8445e+13, 0.0835713, -0.183327, -0.312647, 0.998965, -0.00536689, -0.00395466, -0.0450007, 0.000381137, 0.00268171, 0.00109119, 0.00126342, -0.0113659, 0.00447981, -0.0103673, -0.00838425, -0.0899904, 0, 0, 0, 0, 0, 0, 0, 0, 0, 0, 0, 0, 0, 0, 0, 0, 0, 0, 0, 0, 0, 0, 0, 0, 0, 0, 0, 0, 0, 0, 0, 0, 0, 0, 0, 0, 0, 0, 0, 0, 0, 0, 0, 0, 0, 0, 0, 0, 0, 0, 0, 0, 0, 0, 0, 0, 0, 0, 0, 0, 0, 0, 0, 0, 0, 0, 0, 0, 0, 0, 0, 
[2024-06-13 12:18:03.796190] [0x0000007f98d14010] [LogDataTag] [0x00002ff1] [397] 1718295482836884, 0.958856, 0, 0, 0, 0, 0, 0, 0, 0, 0, 0, 0, 0, 1.8445e+13, 0.0835882, -0.183342, -0.312647, 0.998965, -0.00536264, -0.00395706, -0.0450003, 0.000346727, 0.00256932, 0.00126039, 0.00490795, -0.00131142, -0.00190937, -0.0103586, -0.00838867, -0.0899895, 0, 0, 0, 0, 0, 0, 0, 0, 0, 0, 0, 0, 0, 0, 0, 0, 0, 0, 0, 0, 0, 0, 0, 0, 0, 0, 0, 0, 0, 0, 0, 0, 0, 0, 0, 0, 0, 0, 0, 0, 0, 0, 0, 0, 0, 0, 0, 0, 0, 0, 0, 0, 0, 0, 0, 0, 0, 0, 0, 0, 0, 0, 0, 0, 0, 0, 0, 0, 0, 0, 0, 
[2024-06-13 12:18:03.806285] [0x0000007f925b99a0] [LogDataTag] [0x00002ff1] [401] 1718295482836884, 0.968857, 0, 0, 0, 0, 0, 0, 0, 0, 0, 0, 0, 0, 1.8445e+13, 0.083605, -0.18336, -0.312647, 0.998965, -0.00536764, -0.00397003, -0.0449971, 0.000423274, 0.0024779, 0.00127034, 0.00332376, 0.00250222, 0.00521289, -0.0103674, -0.008415, -0.089983, 0, 0, 0, 0, 0, 0, 0, 0, 0, 0, 0, 0, 0, 0, 0, 0, 0, 0, 0, 0, 0, 0, 0, 0, 0, 0, 0, 0, 0, 0, 0, 0, 0, 0, 0, 0, 0, 0, 0, 0, 0, 0, 0, 0, 0, 0, 0, 0, 0, 0, 0, 0, 0, 0, 0, 0, 0, 0, 0, 0, 0, 0, 0, 0, 0, 0, 0, 0, 0, 0, 0, 
[2024-06-13 12:18:03.816202] [0x0000007f98d14010] [LogDataTag] [0x00002ff1] [406] 1718295482836884, 0.97885, 0, 0, 0, 0, 0, 0, 0, 0, 0, 0, 0, 0, 1.8445e+13, 0.0836396, -0.1834, -0.312646, 0.998964, -0.00540002, -0.00395604, -0.0450097, 0.000646701, 0.00315846, 0.00134697, -0.00895726, -0.00444568, -0.00308281, -0.0104333, -0.00839008, -0.0900081, 0, 0, 0, 0, 0, 0, 0, 0, 0, 0, 0, 0, 0, 0, 0, 0, 0, 0, 0, 0, 0, 0, 0, 0, 0, 0, 0, 0, 0, 0, 0, 0, 0, 0, 0, 0, 0, 0, 0, 0, 0, 0, 0, 0, 0, 0, 0, 0, 0, 0, 0, 0, 0, 0, 0, 0, 0, 0, 0, 0, 0, 0, 0, 0, 0, 0, 0, 0, 0, 0, 0, 
[2024-06-13 12:18:03.826218] [0x0000007f98d14010] [LogDataTag] [0x00002ff1] [410] 1718295482836884, 0.98887, 0, 0, 0, 0, 0, 0, 0, 0, 0, 0, 0, 0, 1.8445e+13, 0.0836396, -0.1834, -0.312646, 0.998964, -0.00540002, -0.00395604, -0.0450097, 0.000646701, 0.00315846, 0.00134697, -0.00895726, -0.00444568, -0.00308281, -0.0104333, -0.00839008, -0.0900081, 0, 0, 0, 0, 0, 0, 0, 0, 0, 0, 0, 0, 0, 0, 0, 0, 0, 0, 0, 0, 0, 0, 0, 0, 0, 0, 0, 0, 0, 0, 0, 0, 0, 0, 0, 0, 0, 0, 0, 0, 0, 0, 0, 0, 0, 0, 0, 0, 0, 0, 0, 0, 0, 0, 0, 0, 0, 0, 0, 0, 0, 0, 0, 0, 0, 0, 0, 0, 0, 0, 0, 
[2024-06-13 12:18:03.836183] [0x0000007f91db89a0] [LogDataTag] [0x00002ff1] [414] 1718295482836884, 0.998792, 0, 0, 0, 0, 0, 0, 0, 0, 0, 0, 0, 0, 1.8445e+13, 0.0836737, -0.183451, -0.312646, 0.998964, -0.00538637, -0.00394096, -0.045005, 0.000724318, 0.000558217, 0.000855125, -0.0020733, 0.00232442, -0.0164592, -0.0104074, -0.00835867, -0.0899988, 0, 0, 0, 0, 0, 0, 0, 0, 0, 0, 0, 0, 0, 0, 0, 0, 0, 0, 0, 0, 0, 0, 0, 0, 0, 0, 0, 0, 0, 0, 0, 0, 0, 0, 0, 0, 0, 0, 0, 0, 0, 0, 0, 0, 0, 0, 0, 0, 0, 0, 0, 0, 0, 0, 0, 0, 0, 0, 0, 0, 0, 0, 0, 0, 0, 0, 0, 0, 0, 0, 0, 
[2024-06-13 12:18:03.846220] [0x0000007f98d14010] [LogDataTag] [0x00002ff1] [419] 1718295482836884, 1.00885, 0, 0, 0, 0, 0, 0, 0, 0, 0, 0, 0, 0, 1.8445e+13, 0.0836899, -0.183491, -0.312649, 0.998959, -0.00541196, -0.00393077, -0.0451282, 0.000222727, 0.000224285, 0.000893308, -0.0040609, 0.00753473, -0.0309219, -0.0104584, -0.00834192, -0.0902454, 0, 0, 0, 0, 0, 0, 0, 0, 0, 0, 0, 0, 0, 0, 0, 0, 0, 0, 0, 0, 0, 0, 0, 0, 0, 0, 0, 0, 0, 0, 0, 0, 0, 0, 0, 0, 0, 0, 0, 0, 0, 0, 0, 0, 0, 0, 0, 0, 0, 0, 0, 0, 0, 0, 0, 0, 0, 0, 0, 0, 0, 0, 0, 0, 0, 0, 0, 0, 0, 0, 0, 
[2024-06-13 12:18:03.856220] [0x0000007f98d14010] [LogDataTag] [0x00002ff1] [423] 1718295482836884, 1.01888, 0, 0, 0, 0, 0, 0, 0, 0, 0, 0, 0, 0, 1.8445e+13, 0.0836899, -0.183491, -0.312649, 0.998959, -0.00541196, -0.00393077, -0.0451282, 0.000222727, 0.000224285, 0.000893308, -0.0040609, 0.00753473, -0.0309219, -0.0104584, -0.00834192, -0.0902454, 0, 0, 0, 0, 0, 0, 0, 0, 0, 0, 0, 0, 0, 0, 0, 0, 0, 0, 0, 0, 0, 0, 0, 0, 0, 0, 0, 0, 0, 0, 0, 0, 0, 0, 0, 0, 0, 0, 0, 0, 0, 0, 0, 0, 0, 0, 0, 0, 0, 0, 0, 0, 0, 0, 0, 0, 0, 0, 0, 0, 0, 0, 0, 0, 0, 0, 0, 0, 0, 0, 0, 
[2024-06-13 12:18:03.866212] [0x0000007f915b79a0] [LogDataTag] [0x00002ff1] [428] 1718295482836884, 1.02886, 0, 0, 0, 0, 0, 0, 0, 0, 0, 0, 0, 0, 1.8445e+13, 0.0837296, -0.183546, -0.312646, 0.998961, -0.00541862, -0.00392642, -0.045079, 0.000418204, 0.00430029, 0.00161722, 0.00929079, 0.00304718, 0.0267765, -0.0104725, -0.00833331, -0.0901469, 0, 0, 0, 0, 0, 0, 0, 0, 0, 0, 0, 0, 0, 0, 0, 0, 0, 0, 0, 0, 0, 0, 0, 0, 0, 0, 0, 0, 0, 0, 0, 0, 0, 0, 0, 0, 0, 0, 0, 0, 0, 0, 0, 0, 0, 0, 0, 0, 0, 0, 0, 0, 0, 0, 0, 0, 0, 0, 0, 0, 0, 0, 0, 0, 0, 0, 0, 0, 0, 0, 0, 
[2024-06-13 12:18:03.876213] [0x0000007f915b79a0] [LogDataTag] [0x00002ff1] [432] 1718295482836884, 1.03887, 0, 0, 0, 0, 0, 0, 0, 0, 0, 0, 0, 0, 1.8445e+13, 0.0837296, -0.183546, -0.312646, 0.998961, -0.00541862, -0.00392642, -0.045079, 0.000418204, 0.00430029, 0.00161722, 0.00929079, 0.00304718, 0.0267765, -0.0104725, -0.00833331, -0.0901469, 0, 0, 0, 0, 0, 0, 0, 0, 0, 0, 0, 0, 0, 0, 0, 0, 0, 0, 0, 0, 0, 0, 0, 0, 0, 0, 0, 0, 0, 0, 0, 0, 0, 0, 0, 0, 0, 0, 0, 0, 0, 0, 0, 0, 0, 0, 0, 0, 0, 0, 0, 0, 0, 0, 0, 0, 0, 0, 0, 0, 0, 0, 0, 0, 0, 0, 0, 0, 0, 0, 0, 
[2024-06-13 12:18:03.886212] [0x0000007f915b79a0] [LogDataTag] [0x00002ff1] [436] 1718295482836884, 1.04886, 0, 0, 0, 0, 0, 0, 0, 0, 0, 0, 0, 0, 1.8445e+13, 0.0837296, -0.183546, -0.312646, 0.998961, -0.00541862, -0.00392642, -0.045079, 0.000418204, 0.00430029, 0.00161722, 0.00929079, 0.00304718, 0.0267765, -0.0104725, -0.00833331, -0.0901469, 0, 0, 0, 0, 0, 0, 0, 0, 0, 0, 0, 0, 0, 0, 0, 0, 0, 0, 0, 0, 0, 0, 0, 0, 0, 0, 0, 0, 0, 0, 0, 0, 0, 0, 0, 0, 0, 0, 0, 0, 0, 0, 0, 0, 0, 0, 0, 0, 0, 0, 0, 0, 0, 0, 0, 0, 0, 0, 0, 0, 0, 0, 0, 0, 0, 0, 0, 0, 0, 0, 0, 
[2024-06-13 12:18:03.896200] [0x0000007f925b99a0] [LogDataTag] [0x00002ff1] [441] 1718295482836884, 1.05885, 0, 0, 0, 0, 0, 0, 0, 0, 0, 0, 0, 0, 1.8445e+13, 0.0837428, -0.18355, -0.312643, 0.998968, -0.00543054, -0.00391332, -0.0449292, 0.000470142, 0.00393107, 0.0019171, 0.00720313, 0.00116221, 0.0334543, -0.0104988, -0.00830664, -0.089847, 0, 0, 0, 0, 0, 0, 0, 0, 0, 0, 0, 0, 0, 0, 0, 0, 0, 0, 0, 0, 0, 0, 0, 0, 0, 0, 0, 0, 0, 0, 0, 0, 0, 0, 0, 0, 0, 0, 0, 0, 0, 0, 0, 0, 0, 0, 0, 0, 0, 0, 0, 0, 0, 0, 0, 0, 0, 0, 0, 0, 0, 0, 0, 0, 0, 0, 0, 0, 0, 0, 0, 
